{
"type": "FeatureCollection",
"crs": { "type": "name", "properties": { "name": "urn:ogc:def:crs:OGC:1.3:CRS84" } },
"features": [
{ "type": "Feature", "properties": { "行政区域コード": "23101", "公共施設大分類": "3", "公共施設小分類": "03001", "文化施設分類": "03001", "名称": "古川美術館・分館爲三郎記念館", "所在地": "池下町2-50", "管理者コード": 4, "階数": 3, "建築年": 1991 }, "geometry": { "type": "Point", "coordinates": [ 136.948875, 35.168758 ] } },
{ "type": "Feature", "properties": { "行政区域コード": "23102", "公共施設大分類": "3", "公共施設小分類": "03001", "文化施設分類": "03001", "名称": "愛知芸術文化センター愛知県美術館", "所在地": "東桜1-13-2", "管理者コード": 2, "階数": 12, "建築年": 1992 }, "geometry": { "type": "Point", "coordinates": [ 136.911415, 35.170826 ] } },
{ "type": "Feature", "properties": { "行政区域コード": "23102", "公共施設大分類": "3", "公共施設小分類": "03001", "文化施設分類": "03001", "名称": "楽只美術館", "所在地": "泉1-17-28", "管理者コード": 4, "階数": 2, "建築年": 1987 }, "geometry": { "type": "Point", "coordinates": [ 136.911017, 35.175311 ] } },
{ "type": "Feature", "properties": { "行政区域コード": "23102", "公共施設大分類": "3", "公共施設小分類": "03001", "文化施設分類": "03001", "名称": "森村記念館", "所在地": "東桜1-10-18", "管理者コード": 4, "階数": 2, "建築年": 1988 }, "geometry": { "type": "Point", "coordinates": [ 136.909558, 35.172383 ] } },
{ "type": "Feature", "properties": { "行政区域コード": "23102", "公共施設大分類": "3", "公共施設小分類": "03001", "文化施設分類": "03001", "名称": "徳川美術館", "所在地": "徳川町1017", "管理者コード": 4, "階数": 3, "建築年": 1935 }, "geometry": { "type": "Point", "coordinates": [ 136.933792, 35.183616 ] } },
{ "type": "Feature", "properties": { "行政区域コード": "23106", "公共施設大分類": "3", "公共施設小分類": "03001", "文化施設分類": "03001", "名称": "名古屋ボストン美術館", "所在地": "金山町1-1-1", "管理者コード": 4, "階数": -99, "建築年": 1999 }, "geometry": { "type": "Point", "coordinates": [ 136.900602, 35.142648 ] } },
{ "type": "Feature", "properties": { "行政区域コード": "23106", "公共施設大分類": "3", "公共施設小分類": "03001", "文化施設分類": "03001", "名称": "名古屋市美術館", "所在地": "栄2-17-25", "管理者コード": 3, "階数": 2, "建築年": 1988 }, "geometry": { "type": "Point", "coordinates": [ 136.901296, 35.163978 ] } },
{ "type": "Feature", "properties": { "行政区域コード": "23106", "公共施設大分類": "3", "公共施設小分類": "03001", "文化施設分類": "03001", "名称": "名古屋城", "所在地": "本丸1-1", "管理者コード": 3, "階数": -99, "建築年": 1959 }, "geometry": { "type": "Point", "coordinates": [ 136.899545, 35.185531 ] } },
{ "type": "Feature", "properties": { "行政区域コード": "23107", "公共施設大分類": "3", "公共施設小分類": "03001", "文化施設分類": "03001", "名称": "桑山美術館", "所在地": "山中町2-12", "管理者コード": 4, "階数": 2, "建築年": 1981 }, "geometry": { "type": "Point", "coordinates": [ 136.953764, 35.148455 ] } },
{ "type": "Feature", "properties": { "行政区域コード": "23107", "公共施設大分類": "3", "公共施設小分類": "03001", "文化施設分類": "03001", "名称": "昭和美術館", "所在地": "汐見町4-1", "管理者コード": 4, "階数": -99, "建築年": 1978 }, "geometry": { "type": "Point", "coordinates": [ 136.948709, 35.140262 ] } },
{ "type": "Feature", "properties": { "行政区域コード": "23113", "公共施設大分類": "3", "公共施設小分類": "03001", "文化施設分類": "03001", "名称": "唐九郎記念館（翠松園陶芸記念館）", "所在地": "翠松園1-1710", "管理者コード": 4, "階数": -99, "建築年": 1980 }, "geometry": { "type": "Point", "coordinates": [ 136.988746, 35.212456 ] } },
{ "type": "Feature", "properties": { "行政区域コード": "23201", "公共施設大分類": "3", "公共施設小分類": "03001", "文化施設分類": "03001", "名称": "豊橋市美術博物館", "所在地": "今橋町3-1", "管理者コード": 3, "階数": 2, "建築年": 1979 }, "geometry": { "type": "Point", "coordinates": [ 137.394846, 34.769207 ] } },
{ "type": "Feature", "properties": { "行政区域コード": "23202", "公共施設大分類": "3", "公共施設小分類": "03001", "文化施設分類": "03001", "名称": "おかざき世界子ども美術博物館", "所在地": "岡町字鳥居戸1-1", "管理者コード": 3, "階数": 2, "建築年": 1985 }, "geometry": { "type": "Point", "coordinates": [ 137.213683, 34.926908 ] } },
{ "type": "Feature", "properties": { "行政区域コード": "23202", "公共施設大分類": "3", "公共施設小分類": "03001", "文化施設分類": "03001", "名称": "岡崎市美術館", "所在地": "明大寺町字茶園11-3", "管理者コード": 3, "階数": 2, "建築年": 1972 }, "geometry": { "type": "Point", "coordinates": [ 137.164495, 34.941951 ] } },
{ "type": "Feature", "properties": { "行政区域コード": "23202", "公共施設大分類": "3", "公共施設小分類": "03001", "文化施設分類": "03001", "名称": "岡崎市美術博物館（マインドスケープ・ミュージアム）", "所在地": "高隆寺町峠1（岡崎中央総合公園内）", "管理者コード": 3, "階数": 2, "建築年": 1995 }, "geometry": { "type": "Point", "coordinates": [ 137.217297, 34.94707 ] } },
{ "type": "Feature", "properties": { "行政区域コード": "23203", "公共施設大分類": "3", "公共施設小分類": "03001", "文化施設分類": "03001", "名称": "一宮市三岸節子記念美術館", "所在地": "小信中島字郷南3147-1", "管理者コード": 3, "階数": 2, "建築年": 1998 }, "geometry": { "type": "Point", "coordinates": [ 136.74589, 35.308109 ] } },
{ "type": "Feature", "properties": { "行政区域コード": "23203", "公共施設大分類": "3", "公共施設小分類": "03001", "文化施設分類": "03001", "名称": "真清田神社宝物館", "所在地": "真清田1-2-1", "管理者コード": 4, "階数": -99, "建築年": 1989 }, "geometry": { "type": "Point", "coordinates": [ 136.801469, 35.307821 ] } },
{ "type": "Feature", "properties": { "行政区域コード": "23204", "公共施設大分類": "3", "公共施設小分類": "03001", "文化施設分類": "03001", "名称": "愛知県陶磁資料館", "所在地": "南山口町234", "管理者コード": 2, "階数": 3, "建築年": 1978 }, "geometry": { "type": "Point", "coordinates": [ 137.097609, 35.185816 ] } },
{ "type": "Feature", "properties": { "行政区域コード": "23205", "公共施設大分類": "3", "公共施設小分類": "03001", "文化施設分類": "03001", "名称": "かみや美術館", "所在地": "有脇町10-8-9（本館）・平和町7-60-2（分館・南吉の家）", "管理者コード": 4, "階数": 1, "建築年": 1984 }, "geometry": { "type": "Point", "coordinates": [ 136.954268, 34.935008 ] } },
{ "type": "Feature", "properties": { "行政区域コード": "23206", "公共施設大分類": "3", "公共施設小分類": "03001", "文化施設分類": "03001", "名称": "春日井市道風記念館", "所在地": "松河戸町946-2", "管理者コード": 3, "階数": 2, "建築年": 1981 }, "geometry": { "type": "Point", "coordinates": [ 136.96851, 35.220335 ] } },
{ "type": "Feature", "properties": { "行政区域コード": "23210", "公共施設大分類": "3", "公共施設小分類": "03001", "文化施設分類": "03001", "名称": "刈谷市美術館", "所在地": "住吉町4-5", "管理者コード": 3, "階数": 2, "建築年": 1983 }, "geometry": { "type": "Point", "coordinates": [ 137.005706, 34.985669 ] } },
{ "type": "Feature", "properties": { "行政区域コード": "23211", "公共施設大分類": "3", "公共施設小分類": "03001", "文化施設分類": "03001", "名称": "豊田市美術館", "所在地": "小坂本町8-5-1", "管理者コード": 3, "階数": 3, "建築年": 1995 }, "geometry": { "type": "Point", "coordinates": [ 137.151802, 35.080358 ] } },
{ "type": "Feature", "properties": { "行政区域コード": "23211", "公共施設大分類": "3", "公共施設小分類": "03001", "文化施設分類": "03001", "名称": "豊田市和紙のふるさと", "所在地": "永太郎町洞216-1", "管理者コード": 3, "階数": 2, "建築年": 1982 }, "geometry": { "type": "Point", "coordinates": [ 137.293635, 35.237756 ] } },
{ "type": "Feature", "properties": { "行政区域コード": "23215", "公共施設大分類": "3", "公共施設小分類": "03001", "文化施設分類": "03001", "名称": "岩田洗心館", "所在地": "大字犬山字富士見町26", "管理者コード": 4, "階数": -99, "建築年": 1970 }, "geometry": { "type": "Point", "coordinates": [ 136.944728, 35.378796 ] } },
{ "type": "Feature", "properties": { "行政区域コード": "23216", "公共施設大分類": "3", "公共施設小分類": "03001", "文化施設分類": "03001", "名称": "常滑市立陶芸研究所", "所在地": "奥条7-22", "管理者コード": 3, "階数": 2, "建築年": 1961 }, "geometry": { "type": "Point", "coordinates": [ 136.850619, 34.887412 ] } },
{ "type": "Feature", "properties": { "行政区域コード": "23219", "公共施設大分類": "3", "公共施設小分類": "03001", "文化施設分類": "03001", "名称": "メナード美術館", "所在地": "小牧5-250", "管理者コード": 4, "階数": -99, "建築年": 1987 }, "geometry": { "type": "Point", "coordinates": [ 136.919873, 35.288797 ] } },
{ "type": "Feature", "properties": { "行政区域コード": "23220", "公共施設大分類": "3", "公共施設小分類": "03001", "文化施設分類": "03001", "名称": "稲沢市荻須記念美術館", "所在地": "稲沢町前田365-8", "管理者コード": 3, "階数": -99, "建築年": 1983 }, "geometry": { "type": "Point", "coordinates": [ 136.789803, 35.246632 ] } },
{ "type": "Feature", "properties": { "行政区域コード": "23220", "公共施設大分類": "3", "公共施設小分類": "03001", "文化施設分類": "03001", "名称": "国分寺収蔵庫", "所在地": "矢合町2490", "管理者コード": 4, "階数": 1, "建築年": 1965 }, "geometry": { "type": "Point", "coordinates": [ 136.774938, 35.240939 ] } },
{ "type": "Feature", "properties": { "行政区域コード": "23227", "公共施設大分類": "3", "公共施設小分類": "03001", "文化施設分類": "03001", "名称": "高浜市やきものの里かわら美術館", "所在地": "青木町9-6-18", "管理者コード": 3, "階数": 4, "建築年": 1995 }, "geometry": { "type": "Point", "coordinates": [ 136.981933, 34.923149 ] } },
{ "type": "Feature", "properties": { "行政区域コード": "23227", "公共施設大分類": "3", "公共施設小分類": "03001", "文化施設分類": "03001", "名称": "紫峰人形美術館", "所在地": "屋敷町1-5-14", "管理者コード": 4, "階数": -99, "建築年": 1983 }, "geometry": { "type": "Point", "coordinates": [ 136.989124, 34.944969 ] } },
{ "type": "Feature", "properties": { "行政区域コード": "23238", "公共施設大分類": "3", "公共施設小分類": "03001", "文化施設分類": "03001", "名称": "愛知県立芸術大学・法隆寺金堂壁画模写展示館", "所在地": "大字岩作字三ケ峯1-1（愛知県立芸術大学内）", "管理者コード": 2, "階数": 1, "建築年": 1989 }, "geometry": { "type": "Point", "coordinates": [ 137.069153, 35.1674 ] } },
{ "type": "Feature", "properties": { "行政区域コード": "23238", "公共施設大分類": "3", "公共施設小分類": "03001", "文化施設分類": "03001", "名称": "愛知県立芸術大学芸術資料館", "所在地": "大字岩作字三ケ峯1-114", "管理者コード": 2, "階数": -99, "建築年": 1973 }, "geometry": { "type": "Point", "coordinates": [ 137.069153, 35.1674 ] } },
{ "type": "Feature", "properties": { "行政区域コード": "23238", "公共施設大分類": "3", "公共施設小分類": "03001", "文化施設分類": "03001", "名称": "名都美術館", "所在地": "杁ケ池301", "管理者コード": 4, "階数": -99, "建築年": 1992 }, "geometry": { "type": "Point", "coordinates": [ 137.038866, 35.170843 ] } },
{ "type": "Feature", "properties": { "行政区域コード": "23233", "公共施設大分類": "3", "公共施設小分類": "03001", "文化施設分類": "03001", "名称": "清須市はるひ美術館", "所在地": "春日夢の森1", "管理者コード": 3, "階数": -99, "建築年": 1999 }, "geometry": { "type": "Point", "coordinates": [ 136.841014, 35.234461 ] } },
{ "type": "Feature", "properties": { "行政区域コード": "23237", "公共施設大分類": "3", "公共施設小分類": "03001", "文化施設分類": "03001", "名称": "だいきち美術七宝焼参考館", "所在地": "大字遠島八幡島694", "管理者コード": 4, "階数": -99, "建築年": 9999 }, "geometry": { "type": "Point", "coordinates": [ 136.798332, 35.179268 ] } },
{ "type": "Feature", "properties": { "行政区域コード": "23237", "公共施設大分類": "3", "公共施設小分類": "03001", "文化施設分類": "03001", "名称": "七宝町七宝焼アートヴィレッジ", "所在地": "大字遠島字13-2000", "管理者コード": 3, "階数": -99, "建築年": 2004 }, "geometry": { "type": "Point", "coordinates": [ 136.799697, 35.183737 ] } },
{ "type": "Feature", "properties": { "行政区域コード": "23446", "公共施設大分類": "3", "公共施設小分類": "03001", "文化施設分類": "03001", "名称": "杉本美術館", "所在地": "美浜緑苑1-12-1", "管理者コード": 4, "階数": -99, "建築年": 1994 }, "geometry": { "type": "Point", "coordinates": [ 136.866254, 34.801962 ] } },
{ "type": "Feature", "properties": { "行政区域コード": "23102", "公共施設大分類": "3", "公共施設小分類": "03002", "文化施設分類": "03002", "名称": "名古屋市市政資料館", "所在地": "白壁1-3", "管理者コード": 3, "階数": 3, "建築年": 1922 }, "geometry": { "type": "Point", "coordinates": [ 136.910322, 35.181226 ] } },
{ "type": "Feature", "properties": { "行政区域コード": "23102", "公共施設大分類": "3", "公共施設小分類": "03002", "文化施設分類": "03002", "名称": "名古屋市蓬左文庫", "所在地": "徳川町1001", "管理者コード": 3, "階数": -99, "建築年": 1951 }, "geometry": { "type": "Point", "coordinates": [ 136.932571, 35.183337 ] } },
{ "type": "Feature", "properties": { "行政区域コード": "23103", "公共施設大分類": "3", "公共施設小分類": "03002", "文化施設分類": "03002", "名称": "下水道科学館", "所在地": "名城1-3-3", "管理者コード": 3, "階数": -99, "建築年": 1989 }, "geometry": { "type": "Point", "coordinates": [ 136.902882, 35.192116 ] } },
{ "type": "Feature", "properties": { "行政区域コード": "23104", "公共施設大分類": "3", "公共施設小分類": "03002", "文化施設分類": "03002", "名称": "産業技術記念館（トヨタテクノミュージアム）", "所在地": "則武新町4-1-35", "管理者コード": 4, "階数": -99, "建築年": 1994 }, "geometry": { "type": "Point", "coordinates": [ 136.876328, 35.182387 ] } },
{ "type": "Feature", "properties": { "行政区域コード": "23105", "公共施設大分類": "3", "公共施設小分類": "03002", "文化施設分類": "03002", "名称": "名古屋市秀吉清正記念館", "所在地": "中村町字茶ノ木25（中村公園文化プラザ2階）", "管理者コード": 3, "階数": 4, "建築年": 1967 }, "geometry": { "type": "Point", "coordinates": [ 136.853311, 35.173766 ] } },
{ "type": "Feature", "properties": { "行政区域コード": "23106", "公共施設大分類": "3", "公共施設小分類": "03002", "文化施設分類": "03002", "名称": "でんきの科学館", "所在地": "栄2-2-5", "管理者コード": 4, "階数": -99, "建築年": 1986 }, "geometry": { "type": "Point", "coordinates": [ 136.899258, 35.167728 ] } },
{ "type": "Feature", "properties": { "行政区域コード": "23102", "公共施設大分類": "3", "公共施設小分類": "03002", "文化施設分類": "03002", "名称": "三菱東京ＵＦＪ銀行貨幣資料館", "所在地": "赤塚町25", "管理者コード": 4, "階数": -99, "建築年": 2009 }, "geometry": { "type": "Point", "coordinates": [ 136.923057, 35.183099 ] } },
{ "type": "Feature", "properties": { "行政区域コード": "23106", "公共施設大分類": "3", "公共施設小分類": "03002", "文化施設分類": "03002", "名称": "歯の博物館", "所在地": "丸の内3-5-18（愛知県歯科医師会館3階）", "管理者コード": 4, "階数": -99, "建築年": 1989 }, "geometry": { "type": "Point", "coordinates": [ 136.907039, 35.177264 ] } },
{ "type": "Feature", "properties": { "行政区域コード": "23106", "公共施設大分類": "3", "公共施設小分類": "03002", "文化施設分類": "03002", "名称": "切支丹遺蹟博物館", "所在地": "橘1-21-38", "管理者コード": 4, "階数": 1, "建築年": 1969 }, "geometry": { "type": "Point", "coordinates": [ 136.901255, 35.153635 ] } },
{ "type": "Feature", "properties": { "行政区域コード": "23106", "公共施設大分類": "3", "公共施設小分類": "03002", "文化施設分類": "03002", "名称": "名古屋市科学館", "所在地": "栄2-17-1", "管理者コード": 3, "階数": -99, "建築年": 1962 }, "geometry": { "type": "Point", "coordinates": [ 136.90024, 35.164839 ] } },
{ "type": "Feature", "properties": { "行政区域コード": "23107", "公共施設大分類": "3", "公共施設小分類": "03002", "文化施設分類": "03002", "名称": "南山大学人類学博物館", "所在地": "山里町18", "管理者コード": 4, "階数": 3, "建築年": 1949 }, "geometry": { "type": "Point", "coordinates": [ 136.962819, 35.149844 ] } },
{ "type": "Feature", "properties": { "行政区域コード": "23108", "公共施設大分類": "3", "公共施設小分類": "03002", "文化施設分類": "03002", "名称": "名古屋市博物館", "所在地": "瑞穂通1-27-1", "管理者コード": 3, "階数": -99, "建築年": 1977 }, "geometry": { "type": "Point", "coordinates": [ 136.934905, 35.136234 ] } },
{ "type": "Feature", "properties": { "行政区域コード": "23109", "公共施設大分類": "3", "公共施設小分類": "03002", "文化施設分類": "03002", "名称": "熱田神宮宝物館", "所在地": "神宮1-1-1", "管理者コード": 4, "階数": -99, "建築年": 1966 }, "geometry": { "type": "Point", "coordinates": [ 136.909936, 35.124845 ] } },
{ "type": "Feature", "properties": { "行政区域コード": "23111", "公共施設大分類": "3", "公共施設小分類": "03002", "文化施設分類": "03002", "名称": "名古屋海洋博物館・南極観測船ふじ", "所在地": "港町1-9（名古屋港ポートビル内）", "管理者コード": 4, "階数": -99, "建築年": 1984 }, "geometry": { "type": "Point", "coordinates": [ 136.879446, 35.092248 ] } },
{ "type": "Feature", "properties": { "行政区域コード": "23112", "公共施設大分類": "3", "公共施設小分類": "03002", "文化施設分類": "03002", "名称": "名古屋市見晴台考古資料館", "所在地": "見晴町47", "管理者コード": 3, "階数": 1, "建築年": 1979 }, "geometry": { "type": "Point", "coordinates": [ 136.942044, 35.099599 ] } },
{ "type": "Feature", "properties": { "行政区域コード": "23116", "公共施設大分類": "3", "公共施設小分類": "03002", "文化施設分類": "03002", "名称": "荒木集成館", "所在地": "中平5-616", "管理者コード": 4, "階数": 2, "建築年": 1978 }, "geometry": { "type": "Point", "coordinates": [ 136.995177, 35.112822 ] } },
{ "type": "Feature", "properties": { "行政区域コード": "23201", "公共施設大分類": "3", "公共施設小分類": "03002", "文化施設分類": "03002", "名称": "豊橋市自然史博物館", "所在地": "大岩町字大穴1-238", "管理者コード": 3, "階数": 2, "建築年": 1988 }, "geometry": { "type": "Point", "coordinates": [ 137.432091, 34.721214 ] } },
{ "type": "Feature", "properties": { "行政区域コード": "23201", "公共施設大分類": "3", "公共施設小分類": "03002", "文化施設分類": "03002", "名称": "豊橋市石巻自然科学資料館", "所在地": "石巻町字南山93-2", "管理者コード": 3, "階数": -99, "建築年": 1967 }, "geometry": { "type": "Point", "coordinates": [ 137.45471, 34.7887 ] } },
{ "type": "Feature", "properties": { "行政区域コード": "23201", "公共施設大分類": "3", "公共施設小分類": "03002", "文化施設分類": "03002", "名称": "豊橋市地下資源館", "所在地": "大岩町字火打坂19-16", "管理者コード": 3, "階数": 1, "建築年": 1980 }, "geometry": { "type": "Point", "coordinates": [ 137.431341, 34.729491 ] } },
{ "type": "Feature", "properties": { "行政区域コード": "23201", "公共施設大分類": "3", "公共施設小分類": "03002", "文化施設分類": "03002", "名称": "豊橋市二川宿本陣資料館", "所在地": "二川町字中町65", "管理者コード": 3, "階数": 2, "建築年": 1991 }, "geometry": { "type": "Point", "coordinates": [ 137.450104, 34.723245 ] } },
{ "type": "Feature", "properties": { "行政区域コード": "23202", "公共施設大分類": "3", "公共施設小分類": "03002", "文化施設分類": "03002", "名称": "岡崎城", "所在地": "康生町561（岡崎公園内）", "管理者コード": 3, "階数": 5, "建築年": 1959 }, "geometry": { "type": "Point", "coordinates": [ 137.159055, 34.957337 ] } },
{ "type": "Feature", "properties": { "行政区域コード": "23202", "公共施設大分類": "3", "公共施設小分類": "03002", "文化施設分類": "03002", "名称": "岡崎信用金庫資料館", "所在地": "伝馬通1-58", "管理者コード": 4, "階数": -99, "建築年": 9999 }, "geometry": { "type": "Point", "coordinates": [ 137.167937, 34.957922 ] } },
{ "type": "Feature", "properties": { "行政区域コード": "23202", "公共施設大分類": "3", "公共施設小分類": "03002", "文化施設分類": "03002", "名称": "三河武士のやかた家康館", "所在地": "康生町561（岡崎公園内）", "管理者コード": 3, "階数": 2, "建築年": 1982 }, "geometry": { "type": "Point", "coordinates": [ 137.159055, 34.957337 ] } },
{ "type": "Feature", "properties": { "行政区域コード": "23202", "公共施設大分類": "3", "公共施設小分類": "03002", "文化施設分類": "03002", "名称": "八丁味噌の郷・史料館", "所在地": "八帖町字住環通69（合資会社八丁味噌内）", "管理者コード": 4, "階数": 2, "建築年": 1907 }, "geometry": { "type": "Point", "coordinates": [ 137.15268, 34.958254 ] } },
{ "type": "Feature", "properties": { "行政区域コード": "23203", "公共施設大分類": "3", "公共施設小分類": "03002", "文化施設分類": "03002", "名称": "一宮市博物館", "所在地": "大和町妙興寺2390", "管理者コード": 3, "階数": 2, "建築年": 1987 }, "geometry": { "type": "Point", "coordinates": [ 136.800633, 35.284045 ] } },
{ "type": "Feature", "properties": { "行政区域コード": "23203", "公共施設大分類": "3", "公共施設小分類": "03002", "文化施設分類": "03002", "名称": "一宮市尾西歴史民俗資料館", "所在地": "起字下町211", "管理者コード": 3, "階数": 2, "建築年": 1986 }, "geometry": { "type": "Point", "coordinates": [ 136.7365, 35.305708 ] } },
{ "type": "Feature", "properties": { "行政区域コード": "23204", "公共施設大分類": "3", "公共施設小分類": "03002", "文化施設分類": "03002", "名称": "瀬戸蔵ミュージアム", "所在地": "蔵所町1-1", "管理者コード": 3, "階数": 4, "建築年": 2005 }, "geometry": { "type": "Point", "coordinates": [ 137.100694, 35.225367 ] } },
{ "type": "Feature", "properties": { "行政区域コード": "23205", "公共施設大分類": "3", "公共施設小分類": "03002", "文化施設分類": "03002", "名称": "新美南吉記念館", "所在地": "岩滑西町1-10-1", "管理者コード": 3, "階数": 1, "建築年": 1994 }, "geometry": { "type": "Point", "coordinates": [ 136.911257, 34.909295 ] } },
{ "type": "Feature", "properties": { "行政区域コード": "23205", "公共施設大分類": "3", "公共施設小分類": "03002", "文化施設分類": "03002", "名称": "博物館「酢の里」", "所在地": "中村町2-6", "管理者コード": 4, "階数": 2, "建築年": 1986 }, "geometry": { "type": "Point", "coordinates": [ 136.933672, 34.893547 ] } },
{ "type": "Feature", "properties": { "行政区域コード": "23205", "公共施設大分類": "3", "公共施設小分類": "03002", "文化施設分類": "03002", "名称": "半田空の科学館", "所在地": "桐ケ丘4-210", "管理者コード": 3, "階数": 2, "建築年": 1985 }, "geometry": { "type": "Point", "coordinates": [ 136.913007, 34.891475 ] } },
{ "type": "Feature", "properties": { "行政区域コード": "23205", "公共施設大分類": "3", "公共施設小分類": "03002", "文化施設分類": "03002", "名称": "半田市立博物館", "所在地": "桐ケ丘4-209-1", "管理者コード": 3, "階数": -99, "建築年": 1984 }, "geometry": { "type": "Point", "coordinates": [ 136.914385, 34.89154 ] } },
{ "type": "Feature", "properties": { "行政区域コード": "23206", "公共施設大分類": "3", "公共施設小分類": "03002", "文化施設分類": "03002", "名称": "春日井市立中央公民館内民俗展示室", "所在地": "柏原町1-97-1", "管理者コード": 3, "階数": -99, "建築年": 1977 }, "geometry": { "type": "Point", "coordinates": [ 136.957255, 35.243044 ] } },
{ "type": "Feature", "properties": { "行政区域コード": "23207", "公共施設大分類": "3", "公共施設小分類": "03002", "文化施設分類": "03002", "名称": "御油の松並木資料館", "所在地": "御油町美世賜183", "管理者コード": 3, "階数": -99, "建築年": 1988 }, "geometry": { "type": "Point", "coordinates": [ 137.318484, 34.843948 ] } },
{ "type": "Feature", "properties": { "行政区域コード": "23207", "公共施設大分類": "3", "公共施設小分類": "03002", "文化施設分類": "03002", "名称": "桜ケ丘ミュージアム", "所在地": "桜ケ丘町79-2", "管理者コード": 3, "階数": 2, "建築年": 1983 }, "geometry": { "type": "Point", "coordinates": [ 137.389604, 34.830064 ] } },
{ "type": "Feature", "properties": { "行政区域コード": "23207", "公共施設大分類": "3", "公共施設小分類": "03002", "文化施設分類": "03002", "名称": "豊川閣寺寶館", "所在地": "豊川町1", "管理者コード": 4, "階数": -99, "建築年": 1993 }, "geometry": { "type": "Point", "coordinates": [ 137.392075, 34.824519 ] } },
{ "type": "Feature", "properties": { "行政区域コード": "23208", "公共施設大分類": "3", "公共施設小分類": "03002", "文化施設分類": "03002", "名称": "津島児童科学館", "所在地": "南新開2-74（津島地域文化広場）", "管理者コード": 3, "階数": 2, "建築年": 1991 }, "geometry": { "type": "Point", "coordinates": [ 136.753626, 35.167608 ] } },
{ "type": "Feature", "properties": { "行政区域コード": "23211", "公共施設大分類": "3", "公共施設小分類": "03002", "文化施設分類": "03002", "名称": "トヨタ鞍ケ池記念館", "所在地": "池田町南250", "管理者コード": 4, "階数": -99, "建築年": 1974 }, "geometry": { "type": "Point", "coordinates": [ 137.215176, 35.099991 ] } },
{ "type": "Feature", "properties": { "行政区域コード": "23211", "公共施設大分類": "3", "公共施設小分類": "03002", "文化施設分類": "03002", "名称": "トヨタ会館", "所在地": "トヨタ町1", "管理者コード": 4, "階数": -99, "建築年": 1977 }, "geometry": { "type": "Point", "coordinates": [ 137.158528, 35.053718 ] } },
{ "type": "Feature", "properties": { "行政区域コード": "23211", "公共施設大分類": "3", "公共施設小分類": "03002", "文化施設分類": "03002", "名称": "古橋懐古館", "所在地": "稲武町タヒラ8", "管理者コード": 4, "階数": -99, "建築年": 1958 }, "geometry": { "type": "Point", "coordinates": [ 137.507874, 35.214854 ] } },
{ "type": "Feature", "properties": { "行政区域コード": "23211", "公共施設大分類": "3", "公共施設小分類": "03002", "文化施設分類": "03002", "名称": "三州足助屋敷", "所在地": "足助町飯盛36", "管理者コード": 3, "階数": -99, "建築年": 1980 }, "geometry": { "type": "Point", "coordinates": [ 137.313924, 35.129669 ] } },
{ "type": "Feature", "properties": { "行政区域コード": "23211", "公共施設大分類": "3", "公共施設小分類": "03002", "文化施設分類": "03002", "名称": "豊田市郷土資料館", "所在地": "陣中町1-21", "管理者コード": 3, "階数": 3, "建築年": 1967 }, "geometry": { "type": "Point", "coordinates": [ 137.159717, 35.093996 ] } },
{ "type": "Feature", "properties": { "行政区域コード": "23211", "公共施設大分類": "3", "公共施設小分類": "03002", "文化施設分類": "03002", "名称": "豊田市民芸館・陶芸資料館", "所在地": "平戸橋町波岩86-100", "管理者コード": 3, "階数": -99, "建築年": 1983 }, "geometry": { "type": "Point", "coordinates": [ 137.189387, 35.122194 ] } },
{ "type": "Feature", "properties": { "行政区域コード": "23212", "公共施設大分類": "3", "公共施設小分類": "03002", "文化施設分類": "03002", "名称": "安城市歴史博物館", "所在地": "安城町城堀30", "管理者コード": 3, "階数": 3, "建築年": 1991 }, "geometry": { "type": "Point", "coordinates": [ 137.098059, 34.945843 ] } },
{ "type": "Feature", "properties": { "行政区域コード": "23213", "公共施設大分類": "3", "公共施設小分類": "03002", "文化施設分類": "03002", "名称": "西尾市岩瀬文庫", "所在地": "亀沢町480", "管理者コード": 3, "階数": -99, "建築年": 2003 }, "geometry": { "type": "Point", "coordinates": [ 137.053355, 34.874467 ] } },
{ "type": "Feature", "properties": { "行政区域コード": "23213", "公共施設大分類": "3", "公共施設小分類": "03002", "文化施設分類": "03002", "名称": "西尾市資料館", "所在地": "錦城町229", "管理者コード": 3, "階数": -99, "建築年": 1977 }, "geometry": { "type": "Point", "coordinates": [ 137.048405, 34.866201 ] } },
{ "type": "Feature", "properties": { "行政区域コード": "23214", "公共施設大分類": "3", "公共施設小分類": "03002", "文化施設分類": "03002", "名称": "海辺の文学記念館", "所在地": "竹島町424-1", "管理者コード": 3, "階数": -99, "建築年": 9999 }, "geometry": { "type": "Point", "coordinates": [ 137.234851, 34.815 ] } },
{ "type": "Feature", "properties": { "行政区域コード": "23214", "公共施設大分類": "3", "公共施設小分類": "03002", "文化施設分類": "03002", "名称": "蒲郡市博物館", "所在地": "栄町10-22", "管理者コード": 3, "階数": 2, "建築年": 1979 }, "geometry": { "type": "Point", "coordinates": [ 137.219544, 34.822441 ] } },
{ "type": "Feature", "properties": { "行政区域コード": "23214", "公共施設大分類": "3", "公共施設小分類": "03002", "文化施設分類": "03002", "名称": "生命の海科学館", "所在地": "港町17-17", "管理者コード": 3, "階数": -99, "建築年": 1999 }, "geometry": { "type": "Point", "coordinates": [ 137.225062, 34.820249 ] } },
{ "type": "Feature", "properties": { "行政区域コード": "23215", "公共施設大分類": "3", "公共施設小分類": "03002", "文化施設分類": "03002", "名称": "犬山市文化史料館", "所在地": "大字犬山字北古券8", "管理者コード": 3, "階数": 2, "建築年": 1986 }, "geometry": { "type": "Point", "coordinates": [ 136.939227, 35.385614 ] } },
{ "type": "Feature", "properties": { "行政区域コード": "23215", "公共施設大分類": "3", "公共施設小分類": "03002", "文化施設分類": "03002", "名称": "国宝犬山城", "所在地": "大字犬山字北古券65-2", "管理者コード": 4, "階数": 4, "建築年": 9999 }, "geometry": { "type": "Point", "coordinates": [ 136.939737, 35.387816 ] } },
{ "type": "Feature", "properties": { "行政区域コード": "23215", "公共施設大分類": "3", "公共施設小分類": "03002", "文化施設分類": "03002", "名称": "博物館明治村", "所在地": "内山1", "管理者コード": 4, "階数": -99, "建築年": 1965 }, "geometry": { "type": "Point", "coordinates": [ 136.98828, 35.339543 ] } },
{ "type": "Feature", "properties": { "行政区域コード": "23215", "公共施設大分類": "3", "公共施設小分類": "03002", "文化施設分類": "03002", "名称": "野外民族博物館リトルワールド", "所在地": "今井成沢90-48", "管理者コード": 4, "階数": -99, "建築年": 1983 }, "geometry": { "type": "Point", "coordinates": [ 137.018999, 35.376124 ] } },
{ "type": "Feature", "properties": { "行政区域コード": "23216", "公共施設大分類": "3", "公共施設小分類": "03002", "文化施設分類": "03002", "名称": "常滑市民俗資料館", "所在地": "瀬木町4-203", "管理者コード": 3, "階数": 2, "建築年": 1981 }, "geometry": { "type": "Point", "coordinates": [ 136.85006, 34.886712 ] } },
{ "type": "Feature", "properties": { "行政区域コード": "23217", "公共施設大分類": "3", "公共施設小分類": "03002", "文化施設分類": "03002", "名称": "江南市歴史民俗資料館", "所在地": "北野町川石25-1", "管理者コード": 3, "階数": 3, "建築年": 1984 }, "geometry": { "type": "Point", "coordinates": [ 136.876347, 35.334833 ] } },
{ "type": "Feature", "properties": { "行政区域コード": "23219", "公共施設大分類": "3", "公共施設小分類": "03002", "文化施設分類": "03002", "名称": "小牧市歴史館（小牧城）", "所在地": "堀の内1-1", "管理者コード": 3, "階数": 4, "建築年": 1968 }, "geometry": { "type": "Point", "coordinates": [ 136.912077, 35.29109 ] } },
{ "type": "Feature", "properties": { "行政区域コード": "23221", "公共施設大分類": "3", "公共施設小分類": "03002", "文化施設分類": "03002", "名称": "ヨコタ博物館", "所在地": "作手白鳥北ノ入15-1", "管理者コード": 4, "階数": -99, "建築年": 1987 }, "geometry": { "type": "Point", "coordinates": [ 137.408148, 34.95338 ] } },
{ "type": "Feature", "properties": { "行政区域コード": "23221", "公共施設大分類": "3", "公共施設小分類": "03002", "文化施設分類": "03002", "名称": "医王寺民俗資料館", "所在地": "長篠字弥陀前2・5・6合併地", "管理者コード": 4, "階数": 2, "建築年": 9999 }, "geometry": { "type": "Point", "coordinates": [ 137.557814, 34.930351 ] } },
{ "type": "Feature", "properties": { "行政区域コード": "23221", "公共施設大分類": "3", "公共施設小分類": "03002", "文化施設分類": "03002", "名称": "新城市作手歴史民俗資料館", "所在地": "作手高里字縄手上35", "管理者コード": 3, "階数": 2, "建築年": 1983 }, "geometry": { "type": "Point", "coordinates": [ 137.423666, 34.97715 ] } },
{ "type": "Feature", "properties": { "行政区域コード": "23221", "公共施設大分類": "3", "公共施設小分類": "03002", "文化施設分類": "03002", "名称": "新城市設楽原歴史資料館", "所在地": "竹広字信玄原552", "管理者コード": 3, "階数": 1, "建築年": 1996 }, "geometry": { "type": "Point", "coordinates": [ 137.528103, 34.918944 ] } },
{ "type": "Feature", "properties": { "行政区域コード": "23221", "公共施設大分類": "3", "公共施設小分類": "03002", "文化施設分類": "03002", "名称": "新城市立長篠城址史跡保存館", "所在地": "長篠字市場22-1", "管理者コード": 3, "階数": 2, "建築年": 1964 }, "geometry": { "type": "Point", "coordinates": [ 137.559445, 34.923316 ] } },
{ "type": "Feature", "properties": { "行政区域コード": "23221", "公共施設大分類": "3", "公共施設小分類": "03002", "文化施設分類": "03002", "名称": "鳳来寺山自然科学博物館", "所在地": "門谷字森脇6", "管理者コード": 3, "階数": 2, "建築年": 1963 }, "geometry": { "type": "Point", "coordinates": [ 137.579576, 34.972195 ] } },
{ "type": "Feature", "properties": { "行政区域コード": "23222", "公共施設大分類": "3", "公共施設小分類": "03002", "文化施設分類": "03002", "名称": "ガスエネルギー館", "所在地": "新宝町507-2", "管理者コード": 4, "階数": -99, "建築年": 1985 }, "geometry": { "type": "Point", "coordinates": [ 136.897283, 35.06222 ] } },
{ "type": "Feature", "properties": { "行政区域コード": "23222", "公共施設大分類": "3", "公共施設小分類": "03002", "文化施設分類": "03002", "名称": "東海市立平洲記念館・東海市立郷土資料館", "所在地": "荒尾町蜂ケ尻67", "管理者コード": 3, "階数": -99, "建築年": 1974 }, "geometry": { "type": "Point", "coordinates": [ 136.917935, 35.031476 ] } },
{ "type": "Feature", "properties": { "行政区域コード": "23223", "公共施設大分類": "3", "公共施設小分類": "03002", "文化施設分類": "03002", "名称": "大府市歴史民俗資料館", "所在地": "桃山町5-180-1", "管理者コード": 3, "階数": 2, "建築年": 1980 }, "geometry": { "type": "Point", "coordinates": [ 136.966553, 35.012577 ] } },
{ "type": "Feature", "properties": { "行政区域コード": "23224", "公共施設大分類": "3", "公共施設小分類": "03002", "文化施設分類": "03002", "名称": "知多市歴史民俗博物館", "所在地": "緑町12-2", "管理者コード": 3, "階数": 2, "建築年": 1974 }, "geometry": { "type": "Point", "coordinates": [ 136.867943, 34.999163 ] } },
{ "type": "Feature", "properties": { "行政区域コード": "23225", "公共施設大分類": "3", "公共施設小分類": "03002", "文化施設分類": "03002", "名称": "知立市歴史民俗資料館", "所在地": "南新地2-3-3", "管理者コード": 3, "階数": 2, "建築年": 1987 }, "geometry": { "type": "Point", "coordinates": [ 137.038736, 35.001491 ] } },
{ "type": "Feature", "properties": { "行政区域コード": "23228", "公共施設大分類": "3", "公共施設小分類": "03002", "文化施設分類": "03002", "名称": "舩橋楽器資料館", "所在地": "八剱町石橋11", "管理者コード": 4, "階数": 2, "建築年": 1992 }, "geometry": { "type": "Point", "coordinates": [ 136.877799, 35.298782 ] } },
{ "type": "Feature", "properties": { "行政区域コード": "23230", "公共施設大分類": "3", "公共施設小分類": "03002", "文化施設分類": "03002", "名称": "岩崎城歴史記念館", "所在地": "岩崎町市場67", "管理者コード": 3, "階数": 2, "建築年": 1987 }, "geometry": { "type": "Point", "coordinates": [ 137.042145, 35.145336 ] } },
{ "type": "Feature", "properties": { "行政区域コード": "23231", "公共施設大分類": "3", "公共施設小分類": "03002", "文化施設分類": "03002", "名称": "やしの実博物館（伊良湖自然科学博物館）", "所在地": "伊良湖町宮下3000-65", "管理者コード": 4, "階数": 3, "建築年": 1970 }, "geometry": { "type": "Point", "coordinates": [ 137.020255, 34.583841 ] } },
{ "type": "Feature", "properties": { "行政区域コード": "23231", "公共施設大分類": "3", "公共施設小分類": "03002", "文化施設分類": "03002", "名称": "田原市博物館", "所在地": "田原町巴江11-1", "管理者コード": 3, "階数": -99, "建築年": 1934 }, "geometry": { "type": "Point", "coordinates": [ 137.269092, 34.673692 ] } },
{ "type": "Feature", "properties": { "行政区域コード": "23231", "公共施設大分類": "3", "公共施設小分類": "03002", "文化施設分類": "03002", "名称": "田原市民俗資料館", "所在地": "田原町殿町33", "管理者コード": 3, "階数": -99, "建築年": 1979 }, "geometry": { "type": "Point", "coordinates": [ 137.267776, 34.672641 ] } },
{ "type": "Feature", "properties": { "行政区域コード": "23232", "公共施設大分類": "3", "公共施設小分類": "03002", "文化施設分類": "03002", "名称": "佐織歴史民俗資料室", "所在地": "諏訪町郷西456-1（佐織公民館内）", "管理者コード": 3, "階数": -99, "建築年": 1985 }, "geometry": { "type": "Point", "coordinates": [ 136.738652, 35.192415 ] } },
{ "type": "Feature", "properties": { "行政区域コード": "23234", "公共施設大分類": "3", "公共施設小分類": "03002", "文化施設分類": "03002", "名称": "北名古屋市歴史民俗資料館", "所在地": "熊之庄御榊53", "管理者コード": 3, "階数": 3, "建築年": 1990 }, "geometry": { "type": "Point", "coordinates": [ 136.885487, 35.250034 ] } },
{ "type": "Feature", "properties": { "行政区域コード": "23235", "公共施設大分類": "3", "公共施設小分類": "03002", "文化施設分類": "03002", "名称": "弥富市歴史民俗資料館", "所在地": "前ケ須町野方731", "管理者コード": 3, "階数": 2, "建築年": 1991 }, "geometry": { "type": "Point", "coordinates": [ 136.721302, 35.106213 ] } },
{ "type": "Feature", "properties": { "行政区域コード": "23238", "公共施設大分類": "3", "公共施設小分類": "03002", "文化施設分類": "03002", "名称": "トヨタ博物館", "所在地": "大字長湫字横道41-100", "管理者コード": 4, "階数": 4, "建築年": 1989 }, "geometry": { "type": "Point", "coordinates": [ 137.058097, 35.172745 ] } },
{ "type": "Feature", "properties": { "行政区域コード": "23238", "公共施設大分類": "3", "公共施設小分類": "03002", "文化施設分類": "03002", "名称": "愛知県農業総合試験場・農業民俗館", "所在地": "大字岩作字三ケ峯1-1", "管理者コード": 2, "階数": 1, "建築年": 1971 }, "geometry": { "type": "Point", "coordinates": [ 137.069153, 35.1674 ] } },
{ "type": "Feature", "properties": { "行政区域コード": "23238", "公共施設大分類": "3", "公共施設小分類": "03002", "文化施設分類": "03002", "名称": "長久手町郷土資料室", "所在地": "武蔵塚204", "管理者コード": 3, "階数": 2, "建築年": 1985 }, "geometry": { "type": "Point", "coordinates": [ 137.048641, 35.173603 ] } },
{ "type": "Feature", "properties": { "行政区域コード": "23233", "公共施設大分類": "3", "公共施設小分類": "03002", "文化施設分類": "03002", "名称": "清州市春日公民館郷土資料室", "所在地": "春日東出8-2", "管理者コード": 3, "階数": 5, "建築年": 1991 }, "geometry": { "type": "Point", "coordinates": [ 136.839732, 35.241406 ] } },
{ "type": "Feature", "properties": { "行政区域コード": "23361", "公共施設大分類": "3", "公共施設小分類": "03002", "文化施設分類": "03002", "名称": "大口町歴史民俗資料館", "所在地": "伝右1-35（大口町健康文化センターほほえみプラザ3階）", "管理者コード": 3, "階数": -99, "建築年": 1998 }, "geometry": { "type": "Point", "coordinates": [ 136.910044, 35.328322 ] } },
{ "type": "Feature", "properties": { "行政区域コード": "23237", "公共施設大分類": "3", "公共施設小分類": "03002", "文化施設分類": "03002", "名称": "七宝町郷土資料館（休館中）", "所在地": "大字遠島字十坪119-3", "管理者コード": 3, "階数": 2, "建築年": 1981 }, "geometry": { "type": "Point", "coordinates": [ 136.798831, 35.18637 ] } },
{ "type": "Feature", "properties": { "行政区域コード": "23237", "公共施設大分類": "3", "公共施設小分類": "03002", "文化施設分類": "03002", "名称": "美和町歴史民俗資料館", "所在地": "大字花正字七反地1", "管理者コード": 3, "階数": 2, "建築年": 1983 }, "geometry": { "type": "Point", "coordinates": [ 136.784566, 35.200744 ] } },
{ "type": "Feature", "properties": { "行政区域コード": "23425", "公共施設大分類": "3", "公共施設小分類": "03002", "文化施設分類": "03002", "名称": "蟹江町歴史民俗資料館", "所在地": "大字今字蟹江浦23", "管理者コード": 3, "階数": 2, "建築年": 1978 }, "geometry": { "type": "Point", "coordinates": [ 136.790926, 35.13714 ] } },
{ "type": "Feature", "properties": { "行政区域コード": "23442", "公共施設大分類": "3", "公共施設小分類": "03002", "文化施設分類": "03002", "名称": "あいち健康の森健康科学総合センター健康科学館（あいち健康プラザ）", "所在地": "大字森岡字源吾山1-1", "管理者コード": 2, "階数": 11, "建築年": 1999 }, "geometry": { "type": "Point", "coordinates": [ 136.949475, 34.993963 ] } },
{ "type": "Feature", "properties": { "行政区域コード": "23445", "公共施設大分類": "3", "公共施設小分類": "03002", "文化施設分類": "03002", "名称": "南知多町郷土資料館", "所在地": "大字内海字柴井1-66", "管理者コード": 3, "階数": 3, "建築年": 1977 }, "geometry": { "type": "Point", "coordinates": [ 136.861235, 34.741056 ] } },
{ "type": "Feature", "properties": { "行政区域コード": "23445", "公共施設大分類": "3", "公共施設小分類": "03002", "文化施設分類": "03002", "名称": "日間賀島資料館", "所在地": "日間賀島字東側83", "管理者コード": 3, "階数": -99, "建築年": 1989 }, "geometry": { "type": "Point", "coordinates": [ 137.005971, 34.706422 ] } },
{ "type": "Feature", "properties": { "行政区域コード": "23447", "公共施設大分類": "3", "公共施設小分類": "03002", "文化施設分類": "03002", "名称": "武豊町歴史民俗資料館", "所在地": "字山ノ神20-1", "管理者コード": 3, "階数": 2, "建築年": 1985 }, "geometry": { "type": "Point", "coordinates": [ 136.914065, 34.855765 ] } },
{ "type": "Feature", "properties": { "行政区域コード": "23213", "公共施設大分類": "3", "公共施設小分類": "03002", "文化施設分類": "03002", "名称": "一色学びの館", "所在地": "大字一色字東前新田8", "管理者コード": 3, "階数": 3, "建築年": 1988 }, "geometry": { "type": "Point", "coordinates": [ 137.028128, 34.806507 ] } },
{ "type": "Feature", "properties": { "行政区域コード": "23213", "公共施設大分類": "3", "公共施設小分類": "03002", "文化施設分類": "03002", "名称": "吉良町歴史民俗資料館", "所在地": "大字白浜新田字宮前59-1", "管理者コード": 3, "階数": 1, "建築年": 1982 }, "geometry": { "type": "Point", "coordinates": [ 137.083255, 34.783375 ] } },
{ "type": "Feature", "properties": { "行政区域コード": "23501", "公共施設大分類": "3", "公共施設小分類": "03002", "文化施設分類": "03002", "名称": "幸田町郷土資料館", "所在地": "大字深溝字清水36-1", "管理者コード": 3, "階数": 1, "建築年": 1977 }, "geometry": { "type": "Point", "coordinates": [ 137.179781, 34.838649 ] } },
{ "type": "Feature", "properties": { "行政区域コード": "23236", "公共施設大分類": "3", "公共施設小分類": "03002", "文化施設分類": "03002", "名称": "三好町立歴史民俗資料館", "所在地": "大字三好字陣取山44-1", "管理者コード": 3, "階数": 2, "建築年": 1982 }, "geometry": { "type": "Point", "coordinates": [ 137.073994, 35.087718 ] } },
{ "type": "Feature", "properties": { "行政区域コード": "23561", "公共施設大分類": "3", "公共施設小分類": "03002", "文化施設分類": "03002", "名称": "設楽町奥三河郷土館", "所在地": "大字田口字アラコ14", "管理者コード": 3, "階数": 2, "建築年": 1977 }, "geometry": { "type": "Point", "coordinates": [ 137.572141, 35.092866 ] } },
{ "type": "Feature", "properties": { "行政区域コード": "23562", "公共施設大分類": "3", "公共施設小分類": "03002", "文化施設分類": "03002", "名称": "東栄町立博物館", "所在地": "大字本郷字大森1", "管理者コード": 3, "階数": 2, "建築年": 1969 }, "geometry": { "type": "Point", "coordinates": [ 137.703754, 35.067643 ] } },
{ "type": "Feature", "properties": { "行政区域コード": "23207", "公共施設大分類": "3", "公共施設小分類": "03002", "文化施設分類": "03002", "名称": "小坂井町郷土資料館", "所在地": "大字宿字光道寺40", "管理者コード": 3, "階数": -99, "建築年": 9999 }, "geometry": { "type": "Point", "coordinates": [ 137.359366, 34.80192 ] } },
{ "type": "Feature", "properties": { "行政区域コード": "23101", "公共施設大分類": "3", "公共施設小分類": "03003", "文化施設分類": "03003", "名称": "名古屋市千種図書館", "所在地": "田代町字瓶杁1-137", "管理者コード": 3, "階数": -99, "建築年": 1968 }, "geometry": { "type": "Point", "coordinates": [ 136.978845, 35.160324 ] } },
{ "type": "Feature", "properties": { "行政区域コード": "23102", "公共施設大分類": "3", "公共施設小分類": "03003", "文化施設分類": "03003", "名称": "名古屋市東図書館", "所在地": "大幸南1-1-10", "管理者コード": 3, "階数": -99, "建築年": 2001 }, "geometry": { "type": "Point", "coordinates": [ 136.946978, 35.189196 ] } },
{ "type": "Feature", "properties": { "行政区域コード": "23103", "公共施設大分類": "3", "公共施設小分類": "03003", "文化施設分類": "03003", "名称": "名古屋市楠図書館", "所在地": "楠2-974", "管理者コード": 3, "階数": -99, "建築年": 1997 }, "geometry": { "type": "Point", "coordinates": [ 136.922746, 35.228546 ] } },
{ "type": "Feature", "properties": { "行政区域コード": "23103", "公共施設大分類": "3", "公共施設小分類": "03003", "文化施設分類": "03003", "名称": "名古屋市北図書館", "所在地": "志賀町4-60-31", "管理者コード": 3, "階数": -99, "建築年": 1997 }, "geometry": { "type": "Point", "coordinates": [ 136.913208, 35.203217 ] } },
{ "type": "Feature", "properties": { "行政区域コード": "23104", "公共施設大分類": "3", "公共施設小分類": "03003", "文化施設分類": "03003", "名称": "名古屋市西図書館", "所在地": "花の木2-18-23", "管理者コード": 3, "階数": -99, "建築年": 1994 }, "geometry": { "type": "Point", "coordinates": [ 136.890018, 35.189613 ] } },
{ "type": "Feature", "properties": { "行政区域コード": "23105", "公共施設大分類": "3", "公共施設小分類": "03003", "文化施設分類": "03003", "名称": "名古屋市中村図書館", "所在地": "中村町字茶ノ木25", "管理者コード": 3, "階数": -99, "建築年": 1991 }, "geometry": { "type": "Point", "coordinates": [ 136.853311, 35.173766 ] } },
{ "type": "Feature", "properties": { "行政区域コード": "23106", "公共施設大分類": "3", "公共施設小分類": "03003", "文化施設分類": "03003", "名称": "愛知芸術文化センター愛知県図書館", "所在地": "三の丸1-9-3", "管理者コード": 2, "階数": -99, "建築年": 9999 }, "geometry": { "type": "Point", "coordinates": [ 136.895352, 35.178448 ] } },
{ "type": "Feature", "properties": { "行政区域コード": "23107", "公共施設大分類": "3", "公共施設小分類": "03003", "文化施設分類": "03003", "名称": "名古屋市鶴舞中央図書館", "所在地": "鶴舞1-1-155", "管理者コード": 3, "階数": -99, "建築年": 1984 }, "geometry": { "type": "Point", "coordinates": [ 136.917267, 35.15437 ] } },
{ "type": "Feature", "properties": { "行政区域コード": "23108", "公共施設大分類": "3", "公共施設小分類": "03003", "文化施設分類": "03003", "名称": "名古屋市瑞穂図書館", "所在地": "東栄町2-1", "管理者コード": 3, "階数": -99, "建築年": 1969 }, "geometry": { "type": "Point", "coordinates": [ 136.935551, 35.136002 ] } },
{ "type": "Feature", "properties": { "行政区域コード": "23109", "公共施設大分類": "3", "公共施設小分類": "03003", "文化施設分類": "03003", "名称": "名古屋市熱田図書館", "所在地": "神宮3-1-15", "管理者コード": 3, "階数": -99, "建築年": 2001 }, "geometry": { "type": "Point", "coordinates": [ 136.910254, 35.128689 ] } },
{ "type": "Feature", "properties": { "行政区域コード": "23110", "公共施設大分類": "3", "公共施設小分類": "03003", "文化施設分類": "03003", "名称": "名古屋市中川図書館", "所在地": "吉良町178-3", "管理者コード": 3, "階数": -99, "建築年": 2002 }, "geometry": { "type": "Point", "coordinates": [ 136.861268, 35.138659 ] } },
{ "type": "Feature", "properties": { "行政区域コード": "23110", "公共施設大分類": "3", "公共施設小分類": "03003", "文化施設分類": "03003", "名称": "名古屋市富田図書館", "所在地": "服部3-601", "管理者コード": 3, "階数": -99, "建築年": 1997 }, "geometry": { "type": "Point", "coordinates": [ 136.813276, 35.148609 ] } },
{ "type": "Feature", "properties": { "行政区域コード": "23111", "公共施設大分類": "3", "公共施設小分類": "03003", "文化施設分類": "03003", "名称": "名古屋市港図書館", "所在地": "港楽1-14-16", "管理者コード": 3, "階数": -99, "建築年": 1999 }, "geometry": { "type": "Point", "coordinates": [ 136.885099, 35.10605 ] } },
{ "type": "Feature", "properties": { "行政区域コード": "23111", "公共施設大分類": "3", "公共施設小分類": "03003", "文化施設分類": "03003", "名称": "名古屋市南陽図書館", "所在地": "秋葉1-130-79", "管理者コード": 3, "階数": -99, "建築年": 2002 }, "geometry": { "type": "Point", "coordinates": [ 136.823719, 35.109589 ] } },
{ "type": "Feature", "properties": { "行政区域コード": "23112", "公共施設大分類": "3", "公共施設小分類": "03003", "文化施設分類": "03003", "名称": "名古屋市南図書館", "所在地": "千竃通2-10-2", "管理者コード": 3, "階数": -99, "建築年": 1992 }, "geometry": { "type": "Point", "coordinates": [ 136.923896, 35.1055 ] } },
{ "type": "Feature", "properties": { "行政区域コード": "23113", "公共施設大分類": "3", "公共施設小分類": "03003", "文化施設分類": "03003", "名称": "名古屋市志段味図書館", "所在地": "深沢1-101", "管理者コード": 3, "階数": -99, "建築年": 2004 }, "geometry": { "type": "Point", "coordinates": [ 137.004149, 35.236895 ] } },
{ "type": "Feature", "properties": { "行政区域コード": "23113", "公共施設大分類": "3", "公共施設小分類": "03003", "文化施設分類": "03003", "名称": "名古屋市守山図書館", "所在地": "守山1-6-1", "管理者コード": 3, "階数": -99, "建築年": 1972 }, "geometry": { "type": "Point", "coordinates": [ 136.955318, 35.196727 ] } },
{ "type": "Feature", "properties": { "行政区域コード": "23114", "公共施設大分類": "3", "公共施設小分類": "03003", "文化施設分類": "03003", "名称": "名古屋市緑図書館", "所在地": "旭出1-1104", "管理者コード": 3, "階数": -99, "建築年": 1972 }, "geometry": { "type": "Point", "coordinates": [ 136.966102, 35.083537 ] } },
{ "type": "Feature", "properties": { "行政区域コード": "23115", "公共施設大分類": "3", "公共施設小分類": "03003", "文化施設分類": "03003", "名称": "名古屋市名東図書館", "所在地": "文教台2-205", "管理者コード": 3, "階数": -99, "建築年": 1976 }, "geometry": { "type": "Point", "coordinates": [ 136.999028, 35.180862 ] } },
{ "type": "Feature", "properties": { "行政区域コード": "23116", "公共施設大分類": "3", "公共施設小分類": "03003", "文化施設分類": "03003", "名称": "名古屋市天白図書館", "所在地": "横町701", "管理者コード": 3, "階数": -99, "建築年": 1977 }, "geometry": { "type": "Point", "coordinates": [ 136.983418, 35.124051 ] } },
{ "type": "Feature", "properties": { "行政区域コード": "23201", "公共施設大分類": "3", "公共施設小分類": "03003", "文化施設分類": "03003", "名称": "豊橋市図書館配本センター", "所在地": "向山大池町20-1", "管理者コード": 3, "階数": -99, "建築年": 9999 }, "geometry": { "type": "Point", "coordinates": [ 137.405373, 34.756553 ] } },
{ "type": "Feature", "properties": { "行政区域コード": "23201", "公共施設大分類": "3", "公共施設小分類": "03003", "文化施設分類": "03003", "名称": "豊橋市中央図書館", "所在地": "羽根井町48", "管理者コード": 3, "階数": -99, "建築年": 9999 }, "geometry": { "type": "Point", "coordinates": [ 137.376054, 34.754046 ] } },
{ "type": "Feature", "properties": { "行政区域コード": "23202", "公共施設大分類": "3", "公共施設小分類": "03003", "文化施設分類": "03003", "名称": "岡崎市立額田図書館", "所在地": "樫山字山ノ神10-1", "管理者コード": 3, "階数": 2, "建築年": 9999 }, "geometry": { "type": "Point", "coordinates": [ 137.292897, 34.918963 ] } },
{ "type": "Feature", "properties": { "行政区域コード": "23203", "公共施設大分類": "3", "公共施設小分類": "03003", "文化施設分類": "03003", "名称": "一宮市立玉堂記念木曽川図書館", "所在地": "木曽川町外割田字西郷中25", "管理者コード": 3, "階数": -99, "建築年": 9999 }, "geometry": { "type": "Point", "coordinates": [ 136.768441, 35.339699 ] } },
{ "type": "Feature", "properties": { "行政区域コード": "23203", "公共施設大分類": "3", "公共施設小分類": "03003", "文化施設分類": "03003", "名称": "一宮市立尾西児童図書館", "所在地": "明地字上平33-1", "管理者コード": 3, "階数": -99, "建築年": 9999 }, "geometry": { "type": "Point", "coordinates": [ 136.738457, 35.279424 ] } },
{ "type": "Feature", "properties": { "行政区域コード": "23203", "公共施設大分類": "3", "公共施設小分類": "03003", "文化施設分類": "03003", "名称": "一宮市立尾西図書館", "所在地": "東五城字大平裏19-1", "管理者コード": 3, "階数": -99, "建築年": 9999 }, "geometry": { "type": "Point", "coordinates": [ 136.751334, 35.308602 ] } },
{ "type": "Feature", "properties": { "行政区域コード": "23204", "公共施設大分類": "3", "公共施設小分類": "03003", "文化施設分類": "03003", "名称": "瀬戸市立図書館", "所在地": "東松山町1-2", "管理者コード": 3, "階数": -99, "建築年": 9999 }, "geometry": { "type": "Point", "coordinates": [ 137.082178, 35.227487 ] } },
{ "type": "Feature", "properties": { "行政区域コード": "23205", "公共施設大分類": "3", "公共施設小分類": "03003", "文化施設分類": "03003", "名称": "半田市立亀崎図書館", "所在地": "亀崎町7-96-1", "管理者コード": 3, "階数": -99, "建築年": 9999 }, "geometry": { "type": "Point", "coordinates": [ 136.96301, 34.914756 ] } },
{ "type": "Feature", "properties": { "行政区域コード": "23205", "公共施設大分類": "3", "公共施設小分類": "03003", "文化施設分類": "03003", "名称": "半田市立図書館", "所在地": "桐ヶ丘4-209-1", "管理者コード": 3, "階数": -99, "建築年": 9999 }, "geometry": { "type": "Point", "coordinates": [ 136.914088, 34.891337 ] } },
{ "type": "Feature", "properties": { "行政区域コード": "23206", "公共施設大分類": "3", "公共施設小分類": "03003", "文化施設分類": "03003", "名称": "春日井市図書館", "所在地": "鳥居松町5-44", "管理者コード": 3, "階数": -99, "建築年": 9999 }, "geometry": { "type": "Point", "coordinates": [ 136.972196, 35.2476 ] } },
{ "type": "Feature", "properties": { "行政区域コード": "23207", "公共施設大分類": "3", "公共施設小分類": "03003", "文化施設分類": "03003", "名称": "豊川市中央図書館", "所在地": "諏訪1-63", "管理者コード": 3, "階数": -99, "建築年": 9999 }, "geometry": { "type": "Point", "coordinates": [ 137.373316, 34.827027 ] } },
{ "type": "Feature", "properties": { "行政区域コード": "23208", "公共施設大分類": "3", "公共施設小分類": "03003", "文化施設分類": "03003", "名称": "津島市立図書館", "所在地": "老松町1-1", "管理者コード": 3, "階数": -99, "建築年": 9999 }, "geometry": { "type": "Point", "coordinates": [ 136.716565, 35.169632 ] } },
{ "type": "Feature", "properties": { "行政区域コード": "23209", "公共施設大分類": "3", "公共施設小分類": "03003", "文化施設分類": "03003", "名称": "碧南市民図書館", "所在地": "鶴見町1-70-1", "管理者コード": 3, "階数": -99, "建築年": 9999 }, "geometry": { "type": "Point", "coordinates": [ 136.993529, 34.903513 ] } },
{ "type": "Feature", "properties": { "行政区域コード": "23209", "公共施設大分類": "3", "公共施設小分類": "03003", "文化施設分類": "03003", "名称": "碧南市民図書館中部分館", "所在地": "源氏神明町2", "管理者コード": 3, "階数": -99, "建築年": 9999 }, "geometry": { "type": "Point", "coordinates": [ 136.997266, 34.88421 ] } },
{ "type": "Feature", "properties": { "行政区域コード": "23209", "公共施設大分類": "3", "公共施設小分類": "03003", "文化施設分類": "03003", "名称": "碧南市民図書館南部分館", "所在地": "塩浜町7-135", "管理者コード": 3, "階数": -99, "建築年": 9999 }, "geometry": { "type": "Point", "coordinates": [ 136.984611, 34.865451 ] } },
{ "type": "Feature", "properties": { "行政区域コード": "23210", "公共施設大分類": "3", "公共施設小分類": "03003", "文化施設分類": "03003", "名称": "刈谷市城町図書館", "所在地": "城町1-24", "管理者コード": 3, "階数": 3, "建築年": 9999 }, "geometry": { "type": "Point", "coordinates": [ 136.987809, 34.987233 ] } },
{ "type": "Feature", "properties": { "行政区域コード": "23210", "公共施設大分類": "3", "公共施設小分類": "03003", "文化施設分類": "03003", "名称": "刈谷市中央図書館", "所在地": "住吉町4-1", "管理者コード": 3, "階数": 3, "建築年": 9999 }, "geometry": { "type": "Point", "coordinates": [ 137.004845, 34.985477 ] } },
{ "type": "Feature", "properties": { "行政区域コード": "23210", "公共施設大分類": "3", "公共施設小分類": "03003", "文化施設分類": "03003", "名称": "刈谷市富士松図書館", "所在地": "東境町神田32-2", "管理者コード": 3, "階数": 2, "建築年": 9999 }, "geometry": { "type": "Point", "coordinates": [ 137.036141, 35.041915 ] } },
{ "type": "Feature", "properties": { "行政区域コード": "23211", "公共施設大分類": "3", "公共施設小分類": "03003", "文化施設分類": "03003", "名称": "豊田市中央図書館", "所在地": "西町1-200", "管理者コード": 3, "階数": -99, "建築年": 9999 }, "geometry": { "type": "Point", "coordinates": [ 137.160272, 35.094441 ] } },
{ "type": "Feature", "properties": { "行政区域コード": "23212", "公共施設大分類": "3", "公共施設小分類": "03003", "文化施設分類": "03003", "名称": "安城市中央図書館", "所在地": "城南町2-10-3", "管理者コード": 3, "階数": -99, "建築年": 9999 }, "geometry": { "type": "Point", "coordinates": [ 137.07634, 34.946915 ] } },
{ "type": "Feature", "properties": { "行政区域コード": "23213", "公共施設大分類": "3", "公共施設小分類": "03003", "文化施設分類": "03003", "名称": "西尾市立図書館", "所在地": "亀沢町474", "管理者コード": 3, "階数": -99, "建築年": 9999 }, "geometry": { "type": "Point", "coordinates": [ 137.053094, 34.874157 ] } },
{ "type": "Feature", "properties": { "行政区域コード": "23214", "公共施設大分類": "3", "公共施設小分類": "03003", "文化施設分類": "03003", "名称": "蒲郡市立図書館", "所在地": "宮成町1-1", "管理者コード": 3, "階数": -99, "建築年": 9999 }, "geometry": { "type": "Point", "coordinates": [ 137.226406, 34.831594 ] } },
{ "type": "Feature", "properties": { "行政区域コード": "23215", "公共施設大分類": "3", "公共施設小分類": "03003", "文化施設分類": "03003", "名称": "犬山市立図書館", "所在地": "大字犬山字東古券322-1", "管理者コード": 3, "階数": -99, "建築年": 9999 }, "geometry": { "type": "Point", "coordinates": [ 136.943061, 35.379537 ] } },
{ "type": "Feature", "properties": { "行政区域コード": "23216", "公共施設大分類": "3", "公共施設小分類": "03003", "文化施設分類": "03003", "名称": "常滑市立図書館", "所在地": "新開町1-104", "管理者コード": 3, "階数": -99, "建築年": 9999 }, "geometry": { "type": "Point", "coordinates": [ 136.832148, 34.889241 ] } },
{ "type": "Feature", "properties": { "行政区域コード": "23217", "公共施設大分類": "3", "公共施設小分類": "03003", "文化施設分類": "03003", "名称": "江南市立図書館", "所在地": "石枕町神明82", "管理者コード": 3, "階数": -99, "建築年": 9999 }, "geometry": { "type": "Point", "coordinates": [ 136.882669, 35.334268 ] } },
{ "type": "Feature", "properties": { "行政区域コード": "23219", "公共施設大分類": "3", "公共施設小分類": "03003", "文化施設分類": "03003", "名称": "小牧市立図書館", "所在地": "小牧5-89", "管理者コード": 3, "階数": -99, "建築年": 9999 }, "geometry": { "type": "Point", "coordinates": [ 136.918095, 35.290519 ] } },
{ "type": "Feature", "properties": { "行政区域コード": "23220", "公共施設大分類": "3", "公共施設小分類": "03003", "文化施設分類": "03003", "名称": "稲沢市立稲沢図書館", "所在地": "国府宮3-1-1-101", "管理者コード": 3, "階数": -99, "建築年": 9999 }, "geometry": { "type": "Point", "coordinates": [ 136.805595, 35.252858 ] } },
{ "type": "Feature", "properties": { "行政区域コード": "23220", "公共施設大分類": "3", "公共施設小分類": "03003", "文化施設分類": "03003", "名称": "稲沢市立祖父江の森図書館", "所在地": "祖父江町桜方六町17", "管理者コード": 3, "階数": -99, "建築年": 9999 }, "geometry": { "type": "Point", "coordinates": [ 136.72931, 35.248438 ] } },
{ "type": "Feature", "properties": { "行政区域コード": "23220", "公共施設大分類": "3", "公共施設小分類": "03003", "文化施設分類": "03003", "名称": "稲沢市立平和町図書館", "所在地": "平和町中三宅二丁割60", "管理者コード": 3, "階数": -99, "建築年": 9999 }, "geometry": { "type": "Point", "coordinates": [ 136.741921, 35.215218 ] } },
{ "type": "Feature", "properties": { "行政区域コード": "23221", "公共施設大分類": "3", "公共施設小分類": "03003", "文化施設分類": "03003", "名称": "新城図書館(ふるさと情報館)", "所在地": "字下川1-1", "管理者コード": 3, "階数": -99, "建築年": 9999 }, "geometry": { "type": "Point", "coordinates": [ 137.500207, 34.900791 ] } },
{ "type": "Feature", "properties": { "行政区域コード": "23222", "公共施設大分類": "3", "公共施設小分類": "03003", "文化施設分類": "03003", "名称": "東海市立中央図書館", "所在地": "中央町3-2", "管理者コード": 3, "階数": -99, "建築年": 9999 }, "geometry": { "type": "Point", "coordinates": [ 136.908437, 35.026134 ] } },
{ "type": "Feature", "properties": { "行政区域コード": "23223", "公共施設大分類": "3", "公共施設小分類": "03003", "文化施設分類": "03003", "名称": "大府市中央図書館（休館予定）", "所在地": "桃山町5-180-1", "管理者コード": 3, "階数": -99, "建築年": 9999 }, "geometry": { "type": "Point", "coordinates": [ 136.966553, 35.012577 ] } },
{ "type": "Feature", "properties": { "行政区域コード": "23224", "公共施設大分類": "3", "公共施設小分類": "03003", "文化施設分類": "03003", "名称": "知多市立中央図書館", "所在地": "岡田字宝ノ脇22", "管理者コード": 3, "階数": -99, "建築年": 9999 }, "geometry": { "type": "Point", "coordinates": [ 136.858001, 34.974055 ] } },
{ "type": "Feature", "properties": { "行政区域コード": "23225", "公共施設大分類": "3", "公共施設小分類": "03003", "文化施設分類": "03003", "名称": "知立市図書館", "所在地": "南新地2-3-3", "管理者コード": 3, "階数": -99, "建築年": 9999 }, "geometry": { "type": "Point", "coordinates": [ 137.038855, 35.001355 ] } },
{ "type": "Feature", "properties": { "行政区域コード": "23226", "公共施設大分類": "3", "公共施設小分類": "03003", "文化施設分類": "03003", "名称": "尾張旭市立図書館", "所在地": "東大道町山の内2419-5", "管理者コード": 3, "階数": -99, "建築年": 9999 }, "geometry": { "type": "Point", "coordinates": [ 137.036162, 35.213099 ] } },
{ "type": "Feature", "properties": { "行政区域コード": "23227", "公共施設大分類": "3", "公共施設小分類": "03003", "文化施設分類": "03003", "名称": "高浜市立図書館", "所在地": "碧海町5-1-5", "管理者コード": 3, "階数": -99, "建築年": 9999 }, "geometry": { "type": "Point", "coordinates": [ 136.984048, 34.919718 ] } },
{ "type": "Feature", "properties": { "行政区域コード": "23228", "公共施設大分類": "3", "公共施設小分類": "03003", "文化施設分類": "03003", "名称": "岩倉市図書館", "所在地": "昭和町2-17", "管理者コード": 3, "階数": -99, "建築年": 9999 }, "geometry": { "type": "Point", "coordinates": [ 136.873683, 35.273492 ] } },
{ "type": "Feature", "properties": { "行政区域コード": "23229", "公共施設大分類": "3", "公共施設小分類": "03003", "文化施設分類": "03003", "名称": "豊明市立図書館", "所在地": "西川町横井4-11", "管理者コード": 3, "階数": -99, "建築年": 9999 }, "geometry": { "type": "Point", "coordinates": [ 137.007206, 35.060662 ] } },
{ "type": "Feature", "properties": { "行政区域コード": "23230", "公共施設大分類": "3", "公共施設小分類": "03003", "文化施設分類": "03003", "名称": "日進市立図書館", "所在地": "蟹甲町中島3", "管理者コード": 3, "階数": -99, "建築年": 9999 }, "geometry": { "type": "Point", "coordinates": [ 137.040069, 35.13253 ] } },
{ "type": "Feature", "properties": { "行政区域コード": "23231", "公共施設大分類": "3", "公共施設小分類": "03003", "文化施設分類": "03003", "名称": "田原市渥美図書館", "所在地": "古田字岡ノ越6-4", "管理者コード": 3, "階数": -99, "建築年": 9999 }, "geometry": { "type": "Point", "coordinates": [ 137.108369, 34.6228 ] } },
{ "type": "Feature", "properties": { "行政区域コード": "23231", "公共施設大分類": "3", "公共施設小分類": "03003", "文化施設分類": "03003", "名称": "田原市赤羽根図書館", "所在地": "赤羽根町赤土1", "管理者コード": 3, "階数": -99, "建築年": 9999 }, "geometry": { "type": "Point", "coordinates": [ 137.212036, 34.618965 ] } },
{ "type": "Feature", "properties": { "行政区域コード": "23231", "公共施設大分類": "3", "公共施設小分類": "03003", "文化施設分類": "03003", "名称": "田原市中央図書館", "所在地": "田原町汐見5", "管理者コード": 3, "階数": -99, "建築年": 9999 }, "geometry": { "type": "Point", "coordinates": [ 137.274993, 34.671483 ] } },
{ "type": "Feature", "properties": { "行政区域コード": "23232", "公共施設大分類": "3", "公共施設小分類": "03003", "文化施設分類": "03003", "名称": "愛西市中央図書館", "所在地": "須依町東田面6", "管理者コード": 3, "階数": -99, "建築年": 9999 }, "geometry": { "type": "Point", "coordinates": [ 136.726387, 35.153247 ] } },
{ "type": "Feature", "properties": { "行政区域コード": "23234", "公共施設大分類": "3", "公共施設小分類": "03003", "文化施設分類": "03003", "名称": "北名古屋市東図書館", "所在地": "熊之庄字御榊53", "管理者コード": 3, "階数": -99, "建築年": 9999 }, "geometry": { "type": "Point", "coordinates": [ 136.885488, 35.249995 ] } },
{ "type": "Feature", "properties": { "行政区域コード": "23234", "公共施設大分類": "3", "公共施設小分類": "03003", "文化施設分類": "03003", "名称": "北名古屋市西図書館", "所在地": "法成寺蔵化60", "管理者コード": 3, "階数": -99, "建築年": 9999 }, "geometry": { "type": "Point", "coordinates": [ 136.858821, 35.251629 ] } },
{ "type": "Feature", "properties": { "行政区域コード": "23235", "公共施設大分類": "3", "公共施設小分類": "03003", "文化施設分類": "03003", "名称": "弥富市立図書館", "所在地": "前ケ須町南本田347", "管理者コード": 3, "階数": -99, "建築年": 9999 }, "geometry": { "type": "Point", "coordinates": [ 136.724557, 35.109517 ] } },
{ "type": "Feature", "properties": { "行政区域コード": "23302", "公共施設大分類": "3", "公共施設小分類": "03003", "文化施設分類": "03003", "名称": "東郷町立図書館", "所在地": "大字春木字北反田14", "管理者コード": 3, "階数": -99, "建築年": 9999 }, "geometry": { "type": "Point", "coordinates": [ 137.052632, 35.09613 ] } },
{ "type": "Feature", "properties": { "行政区域コード": "23238", "公共施設大分類": "3", "公共施設小分類": "03003", "文化施設分類": "03003", "名称": "長久手市中央図書館", "所在地": "坊の後114", "管理者コード": 3, "階数": -99, "建築年": 9999 }, "geometry": { "type": "Point", "coordinates": [ 137.039004, 35.181203 ] } },
{ "type": "Feature", "properties": { "行政区域コード": "23361", "公共施設大分類": "3", "公共施設小分類": "03003", "文化施設分類": "03003", "名称": "大口町立図書館", "所在地": "伝右1-47", "管理者コード": 3, "階数": -99, "建築年": 9999 }, "geometry": { "type": "Point", "coordinates": [ 136.911324, 35.328776 ] } },
{ "type": "Feature", "properties": { "行政区域コード": "23362", "公共施設大分類": "3", "公共施設小分類": "03003", "文化施設分類": "03003", "名称": "扶桑町図書館", "所在地": "大字高雄字福塚183-1", "管理者コード": 3, "階数": -99, "建築年": 9999 }, "geometry": { "type": "Point", "coordinates": [ 136.911593, 35.362841 ] } },
{ "type": "Feature", "properties": { "行政区域コード": "23237", "公共施設大分類": "3", "公共施設小分類": "03003", "文化施設分類": "03003", "名称": "あま市美和図書館", "所在地": "花正地先1-1", "管理者コード": 3, "階数": -99, "建築年": 9999 }, "geometry": { "type": "Point", "coordinates": [ 136.784546, 35.204104 ] } },
{ "type": "Feature", "properties": { "行政区域コード": "23425", "公共施設大分類": "3", "公共施設小分類": "03003", "文化施設分類": "03003", "名称": "蟹江町図書館", "所在地": "大字蟹江新田字札中地101-1", "管理者コード": 3, "階数": -99, "建築年": 9999 }, "geometry": { "type": "Point", "coordinates": [ 136.778256, 35.127318 ] } },
{ "type": "Feature", "properties": { "行政区域コード": "23427", "公共施設大分類": "3", "公共施設小分類": "03003", "文化施設分類": "03003", "名称": "飛島村図書館", "所在地": "大字松之郷3-46-1", "管理者コード": 3, "階数": -99, "建築年": 9999 }, "geometry": { "type": "Point", "coordinates": [ 136.792912, 35.080612 ] } },
{ "type": "Feature", "properties": { "行政区域コード": "23441", "公共施設大分類": "3", "公共施設小分類": "03003", "文化施設分類": "03003", "名称": "阿久比町立図書館", "所在地": "大字卯坂字栗之木谷32-4", "管理者コード": 3, "階数": -99, "建築年": 9999 }, "geometry": { "type": "Point", "coordinates": [ 136.913634, 34.939395 ] } },
{ "type": "Feature", "properties": { "行政区域コード": "23442", "公共施設大分類": "3", "公共施設小分類": "03003", "文化施設分類": "03003", "名称": "東浦町中央図書館", "所在地": "大字緒川字平成81", "管理者コード": 3, "階数": -99, "建築年": 9999 }, "geometry": { "type": "Point", "coordinates": [ 136.968043, 34.975474 ] } },
{ "type": "Feature", "properties": { "行政区域コード": "23446", "公共施設大分類": "3", "公共施設小分類": "03003", "文化施設分類": "03003", "名称": "美浜町図書館", "所在地": "大字北方字十二谷125", "管理者コード": 3, "階数": -99, "建築年": 9999 }, "geometry": { "type": "Point", "coordinates": [ 136.886244, 34.795119 ] } },
{ "type": "Feature", "properties": { "行政区域コード": "23447", "公共施設大分類": "3", "公共施設小分類": "03003", "文化施設分類": "03003", "名称": "武豊町立図書館", "所在地": "字山ノ神135-1", "管理者コード": 3, "階数": -99, "建築年": 9999 }, "geometry": { "type": "Point", "coordinates": [ 136.913109, 34.855957 ] } },
{ "type": "Feature", "properties": { "行政区域コード": "23213", "公共施設大分類": "3", "公共施設小分類": "03003", "文化施設分類": "03003", "名称": "一色地域文化広場学びの館", "所在地": "一色町一色東前新田8", "管理者コード": 3, "階数": -99, "建築年": 9999 }, "geometry": { "type": "Point", "coordinates": [ 137.028128, 34.806507 ] } },
{ "type": "Feature", "properties": { "行政区域コード": "23213", "公共施設大分類": "3", "公共施設小分類": "03003", "文化施設分類": "03003", "名称": "西尾市立吉良図書館", "所在地": "吉良町荻原大道通14-1", "管理者コード": 3, "階数": -99, "建築年": 9999 }, "geometry": { "type": "Point", "coordinates": [ 137.065536, 34.806508 ] } },
{ "type": "Feature", "properties": { "行政区域コード": "23213", "公共施設大分類": "3", "公共施設小分類": "03003", "文化施設分類": "03003", "名称": "西尾市立幡豆図書館", "所在地": "寺部町林添89-1", "管理者コード": 3, "階数": -99, "建築年": 9999 }, "geometry": { "type": "Point", "coordinates": [ 137.124969, 34.789882 ] } },
{ "type": "Feature", "properties": { "行政区域コード": "23501", "公共施設大分類": "3", "公共施設小分類": "03003", "文化施設分類": "03003", "名称": "幸田町立図書館", "所在地": "大字大草字丸山8", "管理者コード": 3, "階数": -99, "建築年": 9999 }, "geometry": { "type": "Point", "coordinates": [ 137.178794, 34.872769 ] } },
{ "type": "Feature", "properties": { "行政区域コード": "23236", "公共施設大分類": "3", "公共施設小分類": "03003", "文化施設分類": "03003", "名称": "みよし市立中央図書館", "所在地": "西陣取山130", "管理者コード": 3, "階数": -99, "建築年": 9999 }, "geometry": { "type": "Point", "coordinates": [ 137.077111, 35.087394 ] } },
{ "type": "Feature", "properties": { "行政区域コード": "23207", "公共施設大分類": "3", "公共施設小分類": "03003", "文化施設分類": "03003", "名称": "豊川市音羽図書館", "所在地": "赤坂町西裏47-1", "管理者コード": 3, "階数": -99, "建築年": 9999 }, "geometry": { "type": "Point", "coordinates": [ 137.305754, 34.856864 ] } },
{ "type": "Feature", "properties": { "行政区域コード": "23111", "公共施設大分類": "3", "公共施設小分類": "03004", "文化施設分類": "03004", "名称": "名古屋港水族館", "所在地": "港町1-3", "管理者コード": 4, "階数": -99, "建築年": 1992 }, "geometry": { "type": "Point", "coordinates": [ 136.878169, 35.091439 ] } },
{ "type": "Feature", "properties": { "行政区域コード": "23209", "公共施設大分類": "3", "公共施設小分類": "03004", "文化施設分類": "03004", "名称": "碧南海浜水族館・碧南市青少年海の科学館", "所在地": "浜町2-3", "管理者コード": 3, "階数": 2, "建築年": 1982 }, "geometry": { "type": "Point", "coordinates": [ 136.981336, 34.879042 ] } },
{ "type": "Feature", "properties": { "行政区域コード": "23214", "公共施設大分類": "3", "公共施設小分類": "03004", "文化施設分類": "03004", "名称": "蒲郡市竹島水族館", "所在地": "竹島町1-6", "管理者コード": 3, "階数": 2, "建築年": 1962 }, "geometry": { "type": "Point", "coordinates": [ 137.231914, 34.816363 ] } },
{ "type": "Feature", "properties": { "行政区域コード": "23446", "公共施設大分類": "3", "公共施設小分類": "03004", "文化施設分類": "03004", "名称": "南知多ビーチランド", "所在地": "奥田428-1", "管理者コード": 4, "階数": -99, "建築年": 1980 }, "geometry": { "type": "Point", "coordinates": [ 136.854651, 34.787513 ] } },
{ "type": "Feature", "properties": { "行政区域コード": "23101", "公共施設大分類": "3", "公共施設小分類": "03005", "文化施設分類": "03005", "名称": "名古屋市東山動植物園", "所在地": "東山元町3-70", "管理者コード": 3, "階数": -99, "建築年": 2000 }, "geometry": { "type": "Point", "coordinates": [ 136.977678, 35.153372 ] } },
{ "type": "Feature", "properties": { "行政区域コード": "23106", "公共施設大分類": "3", "公共施設小分類": "03005", "文化施設分類": "03005", "名称": "ランの館", "所在地": "大須4-4-1", "管理者コード": 3, "階数": -99, "建築年": 1998 }, "geometry": { "type": "Point", "coordinates": [ 136.90823, 35.161331 ] } },
{ "type": "Feature", "properties": { "行政区域コード": "23111", "公共施設大分類": "3", "公共施設小分類": "03005", "文化施設分類": "03005", "名称": "名古屋市農業文化園", "所在地": "春田野2-3204", "管理者コード": 3, "階数": -99, "建築年": 1989 }, "geometry": { "type": "Point", "coordinates": [ 136.8125, 35.115398 ] } },
{ "type": "Feature", "properties": { "行政区域コード": "23201", "公共施設大分類": "3", "公共施設小分類": "03005", "文化施設分類": "03005", "名称": "豊橋総合動植物公園", "所在地": "大岩町字大穴1-238", "管理者コード": 3, "階数": -99, "建築年": 1970 }, "geometry": { "type": "Point", "coordinates": [ 137.42948, 34.72052 ] } },
{ "type": "Feature", "properties": { "行政区域コード": "23215", "公共施設大分類": "3", "公共施設小分類": "03005", "文化施設分類": "03005", "名称": "日本モンキーセンター", "所在地": "犬山官林26", "管理者コード": 4, "階数": -99, "建築年": 1956 }, "geometry": { "type": "Point", "coordinates": [ 136.956309, 35.389037 ] } },
{ "type": "Feature", "properties": { "行政区域コード": "23101", "公共施設大分類": "3", "公共施設小分類": "99999", "文化施設分類": "03002", "名称": "愛知学院大学歯学部歯科資料展示室", "所在地": "楠元町1-100", "管理者コード": 4, "階数": -99, "建築年": 1995 }, "geometry": { "type": "Point", "coordinates": [ 136.961014, 35.168071 ] } },
{ "type": "Feature", "properties": { "行政区域コード": "23205", "公共施設大分類": "3", "公共施設小分類": "99999", "文化施設分類": "03002", "名称": "國盛・酒の文化館", "所在地": "東本町2-24", "管理者コード": 4, "階数": -99, "建築年": 1985 }, "geometry": { "type": "Point", "coordinates": [ 136.934955, 34.895325 ] } },
{ "type": "Feature", "properties": { "行政区域コード": "23107", "公共施設大分類": "3", "公共施設小分類": "99999", "文化施設分類": "03002", "名称": "サイクル・ギャラリー・ヤガミ・自転車資料館", "所在地": "桜山町1-15", "管理者コード": 4, "階数": -99, "建築年": 1989 }, "geometry": { "type": "Point", "coordinates": [ 136.932983, 35.144325 ] } },
{ "type": "Feature", "properties": { "行政区域コード": "23105", "公共施設大分類": "3", "公共施設小分類": "99999", "文化施設分類": "03001", "名称": "大一美術館", "所在地": "鴨付町1-22", "管理者コード": 4, "階数": 2, "建築年": 1997 }, "geometry": { "type": "Point", "coordinates": [ 136.844613, 35.162589 ] } },
{ "type": "Feature", "properties": { "行政区域コード": "23446", "公共施設大分類": "3", "公共施設小分類": "99999", "文化施設分類": "03001", "名称": "美術の森", "所在地": "布土半月85-1", "管理者コード": 4, "階数": -99, "建築年": 1998 }, "geometry": { "type": "Point", "coordinates": [ 136.910764, 34.803101 ] } },
{ "type": "Feature", "properties": { "行政区域コード": "23209", "公共施設大分類": "3", "公共施設小分類": "99999", "文化施設分類": "03001", "名称": "碧南市藤井達吉現代美術館", "所在地": "音羽町1-1", "管理者コード": 3, "階数": -99, "建築年": 2008 }, "geometry": { "type": "Point", "coordinates": [ 136.981788, 34.873402 ] } },
{ "type": "Feature", "properties": { "行政区域コード": "23562", "公共施設大分類": "3", "公共施設小分類": "99999", "文化施設分類": "03002", "名称": "御園高原自然学習村", "所在地": "大字御園字坂場119", "管理者コード": 4, "階数": -99, "建築年": 1972 }, "geometry": { "type": "Point", "coordinates": [ 137.712381, 35.120593 ] } },
{ "type": "Feature", "properties": { "行政区域コード": "23111", "公共施設大分類": "3", "公共施設小分類": "99999", "文化施設分類": "03002", "名称": "リニア・鉄道館", "所在地": "金城ふ頭3-2-2", "管理者コード": 4, "階数": 2, "建築年": 2011 }, "geometry": { "type": "Point", "coordinates": [ 136.851028, 35.048923 ] } },
{ "type": "Feature", "properties": { "行政区域コード": "23232", "公共施設大分類": "3", "公共施設小分類": "99999", "文化施設分類": "03003", "名称": "愛西市佐織図書館", "所在地": "諏訪町郷西456-1", "管理者コード": 3, "階数": -99, "建築年": 9999 }, "geometry": { "type": "Point", "coordinates": [ 136.738611, 35.192408 ] } },
{ "type": "Feature", "properties": { "行政区域コード": "23232", "公共施設大分類": "3", "公共施設小分類": "99999", "文化施設分類": "03003", "名称": "愛西市立田図書館", "所在地": "小茂井町松下5", "管理者コード": 3, "階数": -99, "建築年": 9999 }, "geometry": { "type": "Point", "coordinates": [ 136.693749, 35.169265 ] } },
{ "type": "Feature", "properties": { "行政区域コード": "23203", "公共施設大分類": "3", "公共施設小分類": "99999", "文化施設分類": "03003", "名称": "一宮市立子ども文化広場図書館", "所在地": "朝日1-6-9", "管理者コード": 3, "階数": -99, "建築年": 9999 }, "geometry": { "type": "Point", "coordinates": [ 136.815939, 35.307334 ] } },
{ "type": "Feature", "properties": { "行政区域コード": "23220", "公共施設大分類": "3", "公共施設小分類": "99999", "文化施設分類": "03003", "名称": "稲沢市立中央図書館", "所在地": "正明寺3-114", "管理者コード": 3, "階数": -99, "建築年": 9999 }, "geometry": { "type": "Point", "coordinates": [ 136.807902, 35.244599 ] } },
{ "type": "Feature", "properties": { "行政区域コード": "23202", "公共施設大分類": "3", "公共施設小分類": "99999", "文化施設分類": "03003", "名称": "岡崎市立中央図書館", "所在地": "康生通西4-71", "管理者コード": 3, "階数": -99, "建築年": 9999 }, "geometry": { "type": "Point", "coordinates": [ 137.159282, 34.959507 ] } },
{ "type": "Feature", "properties": { "行政区域コード": "23207", "公共施設大分類": "3", "公共施設小分類": "99999", "文化施設分類": "03003", "名称": "豊川市御津図書館", "所在地": "御津町広石日暮146", "管理者コード": 3, "階数": -99, "建築年": 9999 }, "geometry": { "type": "Point", "coordinates": [ 137.314622, 34.819358 ] } },
{ "type": "Feature", "properties": { "行政区域コード": "23104", "公共施設大分類": "3", "公共施設小分類": "99999", "文化施設分類": "03003", "名称": "名古屋市山田図書館", "所在地": "八筋町358-2", "管理者コード": 3, "階数": -99, "建築年": 2005 }, "geometry": { "type": "Point", "coordinates": [ 136.879879, 35.221829 ] } },
{ "type": "Feature", "properties": { "行政区域コード": "23114", "公共施設大分類": "3", "公共施設小分類": "99999", "文化施設分類": "03003", "名称": "名古屋市徳重図書館", "所在地": "鳴海町字徳重18-41", "管理者コード": 3, "階数": -99, "建築年": 2010 }, "geometry": { "type": "Point", "coordinates": [ 136.997892, 35.095513 ] } },
{ "type": "Feature", "properties": { "行政区域コード": "23201", "公共施設大分類": "3", "公共施設小分類": "99999", "文化施設分類": "03003", "名称": "愛知県盲人福祉連合会点字図書館「明生会館」", "所在地": "東松山町37", "管理者コード": 4, "階数": -99, "建築年": 1968 }, "geometry": { "type": "Point", "coordinates": [ 137.391361, 34.757926 ] } },
{ "type": "Feature", "properties": { "行政区域コード": "23107", "公共施設大分類": "3", "公共施設小分類": "99999", "文化施設分類": "03003", "名称": "名古屋市鶴舞中央図書館点字文庫", "所在地": "鶴舞1-1-155", "管理者コード": 3, "階数": -99, "建築年": 9999 }, "geometry": { "type": "Point", "coordinates": [ 136.917391, 35.154284 ] } },
{ "type": "Feature", "properties": { "行政区域コード": "23111", "公共施設大分類": "3", "公共施設小分類": "99999", "文化施設分類": "03003", "名称": "名古屋ライトハウス名古屋盲人情報文化センター", "所在地": "港陽1-1-65", "管理者コード": 4, "階数": -99, "建築年": 9999 }, "geometry": { "type": "Point", "coordinates": [ 136.887778, 35.103392 ] } },
{ "type": "Feature", "properties": { "行政区域コード": "23203", "公共施設大分類": "3", "公共施設小分類": "99999", "文化施設分類": "03003", "名称": "一宮市立中央図書館", "所在地": "栄3-1-2（尾張一宮駅前ビル5-7階）", "管理者コード": 3, "階数": -99, "建築年": 9999 }, "geometry": { "type": "Point", "coordinates": [ 136.797518, 35.302814 ] } },
{ "type": "Feature", "properties": { "行政区域コード": "23234", "公共施設大分類": "3", "公共施設小分類": "99999", "文化施設分類": "03003", "名称": "名古屋芸術大学東キャンパス図書館", "所在地": "熊之庄古井281", "管理者コード": 4, "階数": -99, "建築年": 9999 }, "geometry": { "type": "Point", "coordinates": [ 136.861724, 35.255689 ] } },
{ "type": "Feature", "properties": { "行政区域コード": "23234", "公共施設大分類": "3", "公共施設小分類": "99999", "文化施設分類": "03003", "名称": "名古屋芸術大学西キャンパス図書館", "所在地": "徳重西沼65", "管理者コード": 4, "階数": -99, "建築年": 9999 }, "geometry": { "type": "Point", "coordinates": [ 136.955455, 34.928046 ] } },
{ "type": "Feature", "properties": { "行政区域コード": "23205", "公共施設大分類": "3", "公共施設小分類": "99999", "文化施設分類": "03003", "名称": "日本福祉大学付属図書館半田分館", "所在地": "東生見町26-2", "管理者コード": 4, "階数": -99, "建築年": 9999 }, "geometry": { "type": "Point", "coordinates": [ 136.955455, 34.928046 ] } },
{ "type": "Feature", "properties": { "行政区域コード": "23102", "公共施設大分類": "3", "公共施設小分類": "99999", "文化施設分類": "03003", "名称": "愛知県女性総合センター「ウィルあいち」情報ライブラリー", "所在地": "上竪杉町1", "管理者コード": 4, "階数": -99, "建築年": 9999 }, "geometry": { "type": "Point", "coordinates": [ 136.910628, 35.180319 ] } },
{ "type": "Feature", "properties": { "行政区域コード": "23106", "公共施設大分類": "3", "公共施設小分類": "99999", "文化施設分類": "03003", "名称": "名古屋都市センターまちづくりライブラリー", "所在地": "金山町1-1-1（金山南ビル12階）", "管理者コード": 4, "階数": -99, "建築年": 9999 }, "geometry": { "type": "Point", "coordinates": [ 136.899962, 35.142723 ] } },
{ "type": "Feature", "properties": { "行政区域コード": "23106", "公共施設大分類": "3", "公共施設小分類": "99999", "文化施設分類": "03003", "名称": "名古屋市女性会館女性情報センター図書資料室（休館中）", "所在地": "大井町7-25", "管理者コード": 3, "階数": -99, "建築年": 9999 }, "geometry": { "type": "Point", "coordinates": [ 136.907704, 35.150407 ] } },
{ "type": "Feature", "properties": { "行政区域コード": "23116", "公共施設大分類": "3", "公共施設小分類": "99999", "文化施設分類": "03003", "名称": "東海学園大学名古屋キャンパス図書館", "所在地": "中平2-901", "管理者コード": 4, "階数": -99, "建築年": 9999 }, "geometry": { "type": "Point", "coordinates": [ 136.99688, 35.117693 ] } },
{ "type": "Feature", "properties": { "行政区域コード": "23101", "公共施設大分類": "3", "公共施設小分類": "99999", "文化施設分類": "03003", "名称": "椙山女学園大学中央図書館", "所在地": "星が丘元町17-3", "管理者コード": 4, "階数": -99, "建築年": 9999 }, "geometry": { "type": "Point", "coordinates": [ 136.988232, 35.159267 ] } },
{ "type": "Feature", "properties": { "行政区域コード": "23116", "公共施設大分類": "3", "公共施設小分類": "99999", "文化施設分類": "03003", "名称": "名古屋女子大学学術情報センター天白分館", "所在地": "高宮町1302", "管理者コード": 4, "階数": -99, "建築年": 9999 }, "geometry": { "type": "Point", "coordinates": [ 136.976248, 35.114232 ] } },
{ "type": "Feature", "properties": { "行政区域コード": "23115", "公共施設大分類": "3", "公共施設小分類": "99999", "文化施設分類": "03003", "名称": "愛知東邦大学図書館", "所在地": "平和が丘3-11", "管理者コード": 4, "階数": -99, "建築年": 9999 }, "geometry": { "type": "Point", "coordinates": [ 136.986981, 35.170182 ] } },
{ "type": "Feature", "properties": { "行政区域コード": "23108", "公共施設大分類": "3", "公共施設小分類": "99999", "文化施設分類": "03003", "名称": "名古屋市立大学総合情報センター田辺通分館", "所在地": "田辺通3-1", "管理者コード": 0, "階数": -99, "建築年": 9999 }, "geometry": { "type": "Point", "coordinates": [ 136.944804, 35.131276 ] } },
{ "type": "Feature", "properties": { "行政区域コード": "23106", "公共施設大分類": "3", "公共施設小分類": "99999", "文化施設分類": "03003", "名称": "日本福祉大学付属図書館名古屋分館", "所在地": "千代田5-22-35", "管理者コード": 4, "階数": -99, "建築年": 9999 }, "geometry": { "type": "Point", "coordinates": [ 136.918086, 35.157581 ] } },
{ "type": "Feature", "properties": { "行政区域コード": "23102", "公共施設大分類": "3", "公共施設小分類": "99999", "文化施設分類": "03003", "名称": "名古屋大学附属図書館医学部保健学科図書館", "所在地": "大幸南1-1-20", "管理者コード": 0, "階数": -99, "建築年": 9999 }, "geometry": { "type": "Point", "coordinates": [ 136.950144, 35.188889 ] } },
{ "type": "Feature", "properties": { "行政区域コード": "23108", "公共施設大分類": "3", "公共施設小分類": "99999", "文化施設分類": "03003", "名称": "名古屋女子大学学術情報センター汐路本館", "所在地": "汐路町3-40", "管理者コード": 4, "階数": -99, "建築年": 9999 }, "geometry": { "type": "Point", "coordinates": [ 136.93811, 35.131982 ] } },
{ "type": "Feature", "properties": { "行政区域コード": "23108", "公共施設大分類": "3", "公共施設小分類": "99999", "文化施設分類": "03003", "名称": "名古屋市立大学総合情報センター山の畑分館", "所在地": "瑞穂町山の畑1", "管理者コード": 0, "階数": -99, "建築年": 9999 }, "geometry": { "type": "Point", "coordinates": [ 136.925482, 35.138687 ] } },
{ "type": "Feature", "properties": { "行政区域コード": "23101", "公共施設大分類": "3", "公共施設小分類": "99999", "文化施設分類": "03003", "名称": "名古屋市立大学総合情報センター北千種分館", "所在地": "北千種2-1-10", "管理者コード": 0, "階数": -99, "建築年": 9999 }, "geometry": { "type": "Point", "coordinates": [ 136.948091, 35.181878 ] } },
{ "type": "Feature", "properties": { "行政区域コード": "23101", "公共施設大分類": "3", "公共施設小分類": "99999", "文化施設分類": "03003", "名称": "愛知学院大学歯学・薬学図書館情報センター", "所在地": "楠元町1-100", "管理者コード": 4, "階数": -99, "建築年": 9999 }, "geometry": { "type": "Point", "coordinates": [ 136.96099, 35.167896 ] } },
{ "type": "Feature", "properties": { "行政区域コード": "23116", "公共施設大分類": "3", "公共施設小分類": "99999", "文化施設分類": "03003", "名称": "名城大学附属図書館", "所在地": "塩釜口1-501", "管理者コード": 4, "階数": -99, "建築年": 9999 }, "geometry": { "type": "Point", "coordinates": [ 136.975795, 35.135234 ] } },
{ "type": "Feature", "properties": { "行政区域コード": "23112", "公共施設大分類": "3", "公共施設小分類": "99999", "文化施設分類": "03003", "名称": "大同大学図書館", "所在地": "滝春町10-3", "管理者コード": 4, "階数": -99, "建築年": 9999 }, "geometry": { "type": "Point", "coordinates": [ 136.906286, 35.077785 ] } },
{ "type": "Feature", "properties": { "行政区域コード": "23107", "公共施設大分類": "3", "公共施設小分類": "99999", "文化施設分類": "03003", "名称": "名古屋大学附属図書館医学部分館", "所在地": "鶴舞町65", "管理者コード": 0, "階数": -99, "建築年": 9999 }, "geometry": { "type": "Point", "coordinates": [ 136.92211, 35.158859 ] } },
{ "type": "Feature", "properties": { "行政区域コード": "23107", "公共施設大分類": "3", "公共施設小分類": "99999", "文化施設分類": "03003", "名称": "中京大学名古屋図書館", "所在地": "八事本町101-2", "管理者コード": 4, "階数": -99, "建築年": 9999 }, "geometry": { "type": "Point", "coordinates": [ 136.966302, 35.139729 ] } },
{ "type": "Feature", "properties": { "行政区域コード": "23107", "公共施設大分類": "3", "公共施設小分類": "99999", "文化施設分類": "03003", "名称": "南山大学名古屋図書館", "所在地": "山里町18", "管理者コード": 4, "階数": -99, "建築年": 9999 }, "geometry": { "type": "Point", "coordinates": [ 136.961976, 35.148395 ] } },
{ "type": "Feature", "properties": { "行政区域コード": "23101", "公共施設大分類": "3", "公共施設小分類": "99999", "文化施設分類": "03003", "名称": "愛知淑徳大学図書館星が丘分館", "所在地": "桜が丘23", "管理者コード": 4, "階数": -99, "建築年": 9999 }, "geometry": { "type": "Point", "coordinates": [ 136.987333, 35.165765 ] } },
{ "type": "Feature", "properties": { "行政区域コード": "23108", "公共施設大分類": "3", "公共施設小分類": "99999", "文化施設分類": "03003", "名称": "名古屋市立大学総合情報センター川澄分館", "所在地": "瑞穂町字川澄1", "管理者コード": 0, "階数": -99, "建築年": 9999 }, "geometry": { "type": "Point", "coordinates": [ 136.934915, 35.138745 ] } },
{ "type": "Feature", "properties": { "行政区域コード": "23107", "公共施設大分類": "3", "公共施設小分類": "99999", "文化施設分類": "03003", "名称": "名古屋工業大学附属図書館", "所在地": "御器所町", "管理者コード": 0, "階数": -99, "建築年": 9999 }, "geometry": { "type": "Point", "coordinates": [ 136.924029, 35.155913 ] } },
{ "type": "Feature", "properties": { "行政区域コード": "23109", "公共施設大分類": "3", "公共施設小分類": "99999", "文化施設分類": "03003", "名称": "名古屋学院大学名古屋キャンパス図書館", "所在地": "熱田西町1-25", "管理者コード": 4, "階数": -99, "建築年": 9999 }, "geometry": { "type": "Point", "coordinates": [ 136.899187, 35.128497 ] } },
{ "type": "Feature", "properties": { "行政区域コード": "23219", "公共施設大分類": "3", "公共施設小分類": "99999", "文化施設分類": "03003", "名称": "小牧市えほん図書館", "所在地": "小牧3-555（ラピオ4階「たぶのきランドよむよむ」内）", "管理者コード": 3, "階数": -99, "建築年": 9999 }, "geometry": { "type": "Point", "coordinates": [ 136.925118, 35.289864 ] } },
{ "type": "Feature", "properties": { "行政区域コード": "23219", "公共施設大分類": "3", "公共施設小分類": "99999", "文化施設分類": "03003", "名称": "名古屋造形大学図書館", "所在地": "大草年上坂6004", "管理者コード": 4, "階数": -99, "建築年": 9999 }, "geometry": { "type": "Point", "coordinates": [ 137.002709, 35.297106 ] } },
{ "type": "Feature", "properties": { "行政区域コード": "23226", "公共施設大分類": "3", "公共施設小分類": "99999", "文化施設分類": "03003", "名称": "名古屋産業大学・名古屋経営短期大学図書館", "所在地": "新居町3255-5", "管理者コード": 4, "階数": -99, "建築年": 9999 }, "geometry": { "type": "Point", "coordinates": [ 137.030657, 35.219759 ] } },
{ "type": "Feature", "properties": { "行政区域コード": "23202", "公共施設大分類": "3", "公共施設小分類": "99999", "文化施設分類": "03003", "名称": "岡崎情報図書館", "所在地": "明大寺町西郷中38", "管理者コード": 4, "階数": -99, "建築年": 9999 }, "geometry": { "type": "Point", "coordinates": [ 137.165787, 34.948296 ] } },
{ "type": "Feature", "properties": { "行政区域コード": "23216", "公共施設大分類": "3", "公共施設小分類": "99999", "文化施設分類": "03003", "名称": "常滑市立図書館南陵分館", "所在地": "苅屋加茂151（南陵公民館内）", "管理者コード": 3, "階数": -99, "建築年": 9999 }, "geometry": { "type": "Point", "coordinates": [ 136.864998, 34.851787 ] } },
{ "type": "Feature", "properties": { "行政区域コード": "23216", "公共施設大分類": "3", "公共施設小分類": "99999", "文化施設分類": "03003", "名称": "常滑市立図書館鬼崎分館", "所在地": "神明町3-35（鬼崎公民館内）", "管理者コード": 3, "階数": -99, "建築年": 9999 }, "geometry": { "type": "Point", "coordinates": [ 136.828231, 34.915505 ] } },
{ "type": "Feature", "properties": { "行政区域コード": "23216", "公共施設大分類": "3", "公共施設小分類": "99999", "文化施設分類": "03003", "名称": "常滑市立図書館青海分館", "所在地": "大塚町177（青海公民館内）", "管理者コード": 3, "階数": -99, "建築年": 9999 }, "geometry": { "type": "Point", "coordinates": [ 136.842318, 34.931027 ] } },
{ "type": "Feature", "properties": { "行政区域コード": "23230", "公共施設大分類": "3", "公共施設小分類": "99999", "文化施設分類": "03003", "名称": "椙山女学園大学日進図書館", "所在地": "竹の山3-2005", "管理者コード": 4, "階数": -99, "建築年": 9999 }, "geometry": { "type": "Point", "coordinates": [ 137.035143, 35.1529 ] } },
{ "type": "Feature", "properties": { "行政区域コード": "23230", "公共施設大分類": "3", "公共施設小分類": "99999", "文化施設分類": "03003", "名称": "愛知学院大学図書館情報センター", "所在地": "岩崎町阿良池12", "管理者コード": 4, "階数": -99, "建築年": 9999 }, "geometry": { "type": "Point", "coordinates": [ 137.046237, 35.160946 ] } },
{ "type": "Feature", "properties": { "行政区域コード": "23230", "公共施設大分類": "3", "公共施設小分類": "99999", "文化施設分類": "03003", "名称": "名古屋外国語大学・名古屋学芸大学図書館", "所在地": "岩崎町竹の山57", "管理者コード": 4, "階数": -99, "建築年": 9999 }, "geometry": { "type": "Point", "coordinates": [ 137.042608, 35.157843 ] } },
{ "type": "Feature", "properties": { "行政区域コード": "23206", "公共施設大分類": "3", "公共施設小分類": "99999", "文化施設分類": "03003", "名称": "中部大学附属三浦記念図書館", "所在地": "松本町1200", "管理者コード": 4, "階数": -99, "建築年": 9999 }, "geometry": { "type": "Point", "coordinates": [ 137.012962, 35.273642 ] } },
{ "type": "Feature", "properties": { "行政区域コード": "23233", "公共施設大分類": "3", "公共施設小分類": "99999", "文化施設分類": "03003", "名称": "清須市立図書館", "所在地": "春日夢の森1", "管理者コード": 3, "階数": -99, "建築年": 9999 }, "geometry": { "type": "Point", "coordinates": [ 136.840349, 35.234645 ] } },
{ "type": "Feature", "properties": { "行政区域コード": "23204", "公共施設大分類": "3", "公共施設小分類": "99999", "文化施設分類": "03003", "名称": "パルティせと市民交流センター情報ライブラリー", "所在地": "栄町45", "管理者コード": 3, "階数": -99, "建築年": 9999 }, "geometry": { "type": "Point", "coordinates": [ 137.097829, 35.225477 ] } },
{ "type": "Feature", "properties": { "行政区域コード": "23204", "公共施設大分類": "3", "公共施設小分類": "99999", "文化施設分類": "03003", "名称": "名古屋学院大学瀬戸キャンパス図書館", "所在地": "上品野町1350", "管理者コード": 4, "階数": -99, "建築年": 9999 }, "geometry": { "type": "Point", "coordinates": [ 137.145818, 35.266928 ] } },
{ "type": "Feature", "properties": { "行政区域コード": "23204", "公共施設大分類": "3", "公共施設小分類": "99999", "文化施設分類": "03003", "名称": "南山大学瀬戸図書館", "所在地": "せいれい町27", "管理者コード": 4, "階数": -99, "建築年": 9999 }, "geometry": { "type": "Point", "coordinates": [ 137.107547, 35.205192 ] } },
{ "type": "Feature", "properties": { "行政区域コード": "23215", "公共施設大分類": "3", "公共施設小分類": "99999", "文化施設分類": "03003", "名称": "犬山市立楽田ふれあい図書館", "所在地": "字城山97（楽田小学校体育館1階）", "管理者コード": 3, "階数": -99, "建築年": 9999 }, "geometry": { "type": "Point", "coordinates": [ 136.951531, 35.328078 ] } },
{ "type": "Feature", "properties": { "行政区域コード": "23446", "公共施設大分類": "3", "公共施設小分類": "99999", "文化施設分類": "03003", "名称": "日本福祉大学付属図書館美浜本館", "所在地": "奥田", "管理者コード": 4, "階数": -99, "建築年": 9999 }, "geometry": { "type": "Point", "coordinates": [ 136.868354, 34.78399 ] } },
{ "type": "Feature", "properties": { "行政区域コード": "23229", "公共施設大分類": "3", "公共施設小分類": "99999", "文化施設分類": "03003", "名称": "桜花学園大学・名古屋短期大学図書館", "所在地": "栄町武侍48", "管理者コード": 4, "階数": -99, "建築年": 9999 }, "geometry": { "type": "Point", "coordinates": [ 136.974627, 35.058895 ] } },
{ "type": "Feature", "properties": { "行政区域コード": "23201", "公共施設大分類": "3", "公共施設小分類": "99999", "文化施設分類": "03003", "名称": "豊橋創造大学・豊橋創造大学短期大学部附属図書館", "所在地": "牛川町松下20-1", "管理者コード": 4, "階数": -99, "建築年": 9999 }, "geometry": { "type": "Point", "coordinates": [ 137.409993, 34.776831 ] } },
{ "type": "Feature", "properties": { "行政区域コード": "23201", "公共施設大分類": "3", "公共施設小分類": "99999", "文化施設分類": "03003", "名称": "豊橋技術科学大学附属図書館", "所在地": "天伯町字雲雀ヶ丘1-1", "管理者コード": 0, "階数": -99, "建築年": 9999 }, "geometry": { "type": "Point", "coordinates": [ 137.410124, 34.700864 ] } },
{ "type": "Feature", "properties": { "行政区域コード": "23201", "公共施設大分類": "3", "公共施設小分類": "99999", "文化施設分類": "03003", "名称": "愛知大学豊橋図書館", "所在地": "町畑町1-1", "管理者コード": 4, "階数": -99, "建築年": 9999 }, "geometry": { "type": "Point", "coordinates": [ 137.386986, 34.741621 ] } },
{ "type": "Feature", "properties": { "行政区域コード": "23211", "公共施設大分類": "3", "公共施設小分類": "99999", "文化施設分類": "03003", "名称": "中京大学豊田図書館", "所在地": "貝津町床立101", "管理者コード": 4, "階数": -99, "建築年": 9999 }, "geometry": { "type": "Point", "coordinates": [ 137.149309, 35.139483 ] } },
{ "type": "Feature", "properties": { "行政区域コード": "23211", "公共施設大分類": "3", "公共施設小分類": "99999", "文化施設分類": "03003", "名称": "愛知学泉大学豊田図書館", "所在地": "大池町汐取1", "管理者コード": 4, "階数": -99, "建築年": 9999 }, "geometry": { "type": "Point", "coordinates": [ 137.123823, 35.104724 ] } },
{ "type": "Feature", "properties": { "行政区域コード": "23211", "公共施設大分類": "3", "公共施設小分類": "99999", "文化施設分類": "03003", "名称": "愛知工業大学附属図書館", "所在地": "八草町八草1247", "管理者コード": 4, "階数": -99, "建築年": 9999 }, "geometry": { "type": "Point", "coordinates": [ 137.112893, 35.183631 ] } },
{ "type": "Feature", "properties": { "行政区域コード": "23238", "公共施設大分類": "3", "公共施設小分類": "99999", "文化施設分類": "03003", "名称": "愛知県立芸術大学芸術情報センター図書館", "所在地": "岩作三ケ峯1-114", "管理者コード": 0, "階数": -99, "建築年": 9999 }, "geometry": { "type": "Point", "coordinates": [ 137.069492, 35.16747 ] } },
{ "type": "Feature", "properties": { "行政区域コード": "23238", "公共施設大分類": "3", "公共施設小分類": "99999", "文化施設分類": "03003", "名称": "愛知医科大学医学情報センター図書館", "所在地": "岩作雁又1-1（大学本館5階）", "管理者コード": 4, "階数": -99, "建築年": 9999 }, "geometry": { "type": "Point", "coordinates": [ 137.049454, 35.193003 ] } },
{ "type": "Feature", "properties": { "行政区域コード": "23238", "公共施設大分類": "3", "公共施設小分類": "99999", "文化施設分類": "03003", "名称": "愛知県立大学学術情報センター長久手キャンパス図書館", "所在地": "茨ケ廻間1522-3", "管理者コード": 0, "階数": -99, "建築年": 9999 }, "geometry": { "type": "Point", "coordinates": [ 137.086785, 35.182052 ] } },
{ "type": "Feature", "properties": { "行政区域コード": "23238", "公共施設大分類": "3", "公共施設小分類": "99999", "文化施設分類": "03003", "名称": "愛知淑徳大学図書館", "所在地": "片平9", "管理者コード": 4, "階数": -99, "建築年": 9999 }, "geometry": { "type": "Point", "coordinates": [ 137.032094, 35.156842 ] } },
{ "type": "Feature", "properties": { "行政区域コード": "23216", "公共施設大分類": "3", "公共施設小分類": "99999", "文化施設分類": "03001", "名称": "INAXライブミュージアム", "所在地": "奥栄町1-130", "管理者コード": 4, "階数": -99, "建築年": 9999 }, "geometry": { "type": "Point", "coordinates": [ 136.84838, 34.881264 ] } },
{ "type": "Feature", "properties": { "行政区域コード": "23237", "公共施設大分類": "3", "公共施設小分類": "99999", "文化施設分類": "03104", "名称": "伊福小学校", "所在地": "七宝町伊福河原28", "管理者コード": 3, "階数": -99, "建築年": 9999 }, "geometry": { "type": "Point", "coordinates": [ 136.793882, 35.155946 ] } },
{ "type": "Feature", "properties": { "行政区域コード": "23237", "公共施設大分類": "3", "公共施設小分類": "99999", "文化施設分類": "03109", "名称": "伊福小学校", "所在地": "七宝町伊福河原28", "管理者コード": 3, "階数": -99, "建築年": 9999 }, "geometry": { "type": "Point", "coordinates": [ 136.793347, 35.155955 ] } },
{ "type": "Feature", "properties": { "行政区域コード": "23237", "公共施設大分類": "3", "公共施設小分類": "99999", "文化施設分類": "03109", "名称": "七宝総合体育館", "所在地": "七宝町伊福宮東3-1", "管理者コード": 3, "階数": -99, "建築年": 9999 }, "geometry": { "type": "Point", "coordinates": [ 136.797136, 35.160784 ] } },
{ "type": "Feature", "properties": { "行政区域コード": "23237", "公共施設大分類": "3", "公共施設小分類": "99999", "文化施設分類": "03110", "名称": "七宝総合体育館", "所在地": "七宝町伊福宮東3-1", "管理者コード": 3, "階数": -99, "建築年": 9999 }, "geometry": { "type": "Point", "coordinates": [ 136.797124, 35.160687 ] } },
{ "type": "Feature", "properties": { "行政区域コード": "23237", "公共施設大分類": "3", "公共施設小分類": "99999", "文化施設分類": "03111", "名称": "七宝総合体育館", "所在地": "七宝町伊福宮東3-1", "管理者コード": 3, "階数": -99, "建築年": 9999 }, "geometry": { "type": "Point", "coordinates": [ 136.797124, 35.160599 ] } },
{ "type": "Feature", "properties": { "行政区域コード": "23237", "公共施設大分類": "3", "公共施設小分類": "99999", "文化施設分類": "03120", "名称": "七宝総合体育館", "所在地": "七宝町伊福宮東3-1", "管理者コード": 3, "階数": -99, "建築年": 9999 }, "geometry": { "type": "Point", "coordinates": [ 136.797124, 35.160493 ] } },
{ "type": "Feature", "properties": { "行政区域コード": "23237", "公共施設大分類": "3", "公共施設小分類": "99999", "文化施設分類": "03129", "名称": "七宝総合体育館", "所在地": "七宝町伊福宮東3-1", "管理者コード": 3, "階数": -99, "建築年": 9999 }, "geometry": { "type": "Point", "coordinates": [ 136.796958, 35.160774 ] } },
{ "type": "Feature", "properties": { "行政区域コード": "23237", "公共施設大分類": "3", "公共施設小分類": "99999", "文化施設分類": "03106", "名称": "七宝プール（休止中）", "所在地": "七宝町伊福宮東3-1", "管理者コード": 3, "階数": -99, "建築年": 9999 }, "geometry": { "type": "Point", "coordinates": [ 136.796756, 35.160221 ] } },
{ "type": "Feature", "properties": { "行政区域コード": "23237", "公共施設大分類": "3", "公共施設小分類": "99999", "文化施設分類": "03104", "名称": "七宝北中学校", "所在地": "七宝町遠島十坪117", "管理者コード": 3, "階数": -99, "建築年": 9999 }, "geometry": { "type": "Point", "coordinates": [ 136.798923, 35.185114 ] } },
{ "type": "Feature", "properties": { "行政区域コード": "23237", "公共施設大分類": "3", "公共施設小分類": "99999", "文化施設分類": "03103", "名称": "七宝北中学校", "所在地": "七宝町遠島十坪117", "管理者コード": 3, "階数": -99, "建築年": 9999 }, "geometry": { "type": "Point", "coordinates": [ 136.798935, 35.184842 ] } },
{ "type": "Feature", "properties": { "行政区域コード": "23237", "公共施設大分類": "3", "公共施設小分類": "99999", "文化施設分類": "03115", "名称": "七宝テニスコート", "所在地": "七宝町遠島十坪53", "管理者コード": 3, "階数": -99, "建築年": 9999 }, "geometry": { "type": "Point", "coordinates": [ 136.79988, 35.185383 ] } },
{ "type": "Feature", "properties": { "行政区域コード": "23237", "公共施設大分類": "3", "公共施設小分類": "99999", "文化施設分類": "03104", "名称": "宝小学校", "所在地": "七宝町遠島大切戸1296", "管理者コード": 3, "階数": -99, "建築年": 9999 }, "geometry": { "type": "Point", "coordinates": [ 136.807663, 35.182766 ] } },
{ "type": "Feature", "properties": { "行政区域コード": "23237", "公共施設大分類": "3", "公共施設小分類": "99999", "文化施設分類": "03109", "名称": "宝小学校", "所在地": "七宝町遠島大切戸1296", "管理者コード": 3, "階数": -99, "建築年": 9999 }, "geometry": { "type": "Point", "coordinates": [ 136.806689, 35.182407 ] } },
{ "type": "Feature", "properties": { "行政区域コード": "23237", "公共施設大分類": "3", "公共施設小分類": "99999", "文化施設分類": "03138", "名称": "宝ゲートボール広場", "所在地": "七宝町沖之島西流43", "管理者コード": 3, "階数": -99, "建築年": 9999 }, "geometry": { "type": "Point", "coordinates": [ 136.803023, 35.183518 ] } },
{ "type": "Feature", "properties": { "行政区域コード": "23237", "公共施設大分類": "3", "公共施設小分類": "99999", "文化施設分類": "03104", "名称": "七宝小学校", "所在地": "七宝町桂角田1777", "管理者コード": 3, "階数": -99, "建築年": 9999 }, "geometry": { "type": "Point", "coordinates": [ 136.797704, 35.170432 ] } },
{ "type": "Feature", "properties": { "行政区域コード": "23237", "公共施設大分類": "3", "公共施設小分類": "99999", "文化施設分類": "03109", "名称": "七宝小学校", "所在地": "七宝町桂角田1777", "管理者コード": 3, "階数": -99, "建築年": 9999 }, "geometry": { "type": "Point", "coordinates": [ 136.797109, 35.170568 ] } },
{ "type": "Feature", "properties": { "行政区域コード": "23237", "公共施設大分類": "3", "公共施設小分類": "99999", "文化施設分類": "03102", "名称": "七宝グラウンド", "所在地": "七宝町桂弥勒28", "管理者コード": 3, "階数": -99, "建築年": 9999 }, "geometry": { "type": "Point", "coordinates": [ 136.795474, 35.164513 ] } },
{ "type": "Feature", "properties": { "行政区域コード": "23237", "公共施設大分類": "3", "公共施設小分類": "99999", "文化施設分類": "03104", "名称": "秋竹小学校", "所在地": "七宝町秋竹中道358", "管理者コード": 3, "階数": -99, "建築年": 9999 }, "geometry": { "type": "Point", "coordinates": [ 136.803479, 35.175331 ] } },
{ "type": "Feature", "properties": { "行政区域コード": "23237", "公共施設大分類": "3", "公共施設小分類": "99999", "文化施設分類": "03109", "名称": "秋竹小学校", "所在地": "七宝町秋竹中道358", "管理者コード": 3, "階数": -99, "建築年": 9999 }, "geometry": { "type": "Point", "coordinates": [ 136.803123, 35.176235 ] } },
{ "type": "Feature", "properties": { "行政区域コード": "23237", "公共施設大分類": "3", "公共施設小分類": "99999", "文化施設分類": "03138", "名称": "川部ゲートボール場", "所在地": "七宝町川部三反田54", "管理者コード": 3, "階数": -99, "建築年": 9999 }, "geometry": { "type": "Point", "coordinates": [ 136.788019, 35.162239 ] } },
{ "type": "Feature", "properties": { "行政区域コード": "23237", "公共施設大分類": "3", "公共施設小分類": "99999", "文化施設分類": "03104", "名称": "七宝中学校", "所在地": "七宝町川部山王4", "管理者コード": 3, "階数": -99, "建築年": 9999 }, "geometry": { "type": "Point", "coordinates": [ 136.795329, 35.170833 ] } },
{ "type": "Feature", "properties": { "行政区域コード": "23237", "公共施設大分類": "3", "公共施設小分類": "99999", "文化施設分類": "03103", "名称": "七宝中学校", "所在地": "七宝町川部山王4", "管理者コード": 3, "階数": -99, "建築年": 9999 }, "geometry": { "type": "Point", "coordinates": [ 136.795329, 35.171046 ] } },
{ "type": "Feature", "properties": { "行政区域コード": "23237", "公共施設大分類": "3", "公共施設小分類": "99999", "文化施設分類": "03102", "名称": "七宝鷹居グラウンド", "所在地": "七宝町鷹居5-2", "管理者コード": 3, "階数": -99, "建築年": 9999 }, "geometry": { "type": "Point", "coordinates": [ 136.787583, 35.159859 ] } },
{ "type": "Feature", "properties": { "行政区域コード": "23237", "公共施設大分類": "3", "公共施設小分類": "99999", "文化施設分類": "03104", "名称": "篠田小学校", "所在地": "篠田十王堂59", "管理者コード": 3, "階数": -99, "建築年": 9999 }, "geometry": { "type": "Point", "coordinates": [ 136.781568, 35.186632 ] } },
{ "type": "Feature", "properties": { "行政区域コード": "23237", "公共施設大分類": "3", "公共施設小分類": "99999", "文化施設分類": "03109", "名称": "篠田小学校", "所在地": "篠田十王堂59", "管理者コード": 3, "階数": -99, "建築年": 9999 }, "geometry": { "type": "Point", "coordinates": [ 136.782543, 35.186593 ] } },
{ "type": "Feature", "properties": { "行政区域コード": "23237", "公共施設大分類": "3", "公共施設小分類": "99999", "文化施設分類": "03104", "名称": "甚目寺西小学校", "所在地": "新居屋三反通11", "管理者コード": 3, "階数": -99, "建築年": 9999 }, "geometry": { "type": "Point", "coordinates": [ 136.815262, 35.19772 ] } },
{ "type": "Feature", "properties": { "行政区域コード": "23237", "公共施設大分類": "3", "公共施設小分類": "99999", "文化施設分類": "03109", "名称": "甚目寺西小学校", "所在地": "新居屋三反通11", "管理者コード": 3, "階数": -99, "建築年": 9999 }, "geometry": { "type": "Point", "coordinates": [ 136.815928, 35.198186 ] } },
{ "type": "Feature", "properties": { "行政区域コード": "23237", "公共施設大分類": "3", "公共施設小分類": "99999", "文化施設分類": "03106", "名称": "甚目寺プール（休止中）", "所在地": "森4-6", "管理者コード": 3, "階数": -99, "建築年": 9999 }, "geometry": { "type": "Point", "coordinates": [ 136.810252, 35.210798 ] } },
{ "type": "Feature", "properties": { "行政区域コード": "23237", "公共施設大分類": "3", "公共施設小分類": "99999", "文化施設分類": "03102", "名称": "森遊水地グラウンド", "所在地": "森地内", "管理者コード": 3, "階数": -99, "建築年": 9999 }, "geometry": { "type": "Point", "coordinates": [ 136.818462, 35.21744 ] } },
{ "type": "Feature", "properties": { "行政区域コード": "23237", "公共施設大分類": "3", "公共施設小分類": "99999", "文化施設分類": "03103", "名称": "森遊水地グラウンド", "所在地": "森地内", "管理者コード": 3, "階数": -99, "建築年": 9999 }, "geometry": { "type": "Point", "coordinates": [ 136.818688, 35.217023 ] } },
{ "type": "Feature", "properties": { "行政区域コード": "23237", "公共施設大分類": "3", "公共施設小分類": "99999", "文化施設分類": "03102", "名称": "森グラウンド", "所在地": "森2-6-4", "管理者コード": 3, "階数": -99, "建築年": 9999 }, "geometry": { "type": "Point", "coordinates": [ 136.814429, 35.209303 ] } },
{ "type": "Feature", "properties": { "行政区域コード": "23237", "公共施設大分類": "3", "公共施設小分類": "99999", "文化施設分類": "03104", "名称": "森グラウンド", "所在地": "森2-6-4", "管理者コード": 3, "階数": -99, "建築年": 9999 }, "geometry": { "type": "Point", "coordinates": [ 136.814512, 35.208788 ] } },
{ "type": "Feature", "properties": { "行政区域コード": "23237", "公共施設大分類": "3", "公共施設小分類": "99999", "文化施設分類": "03138", "名称": "森ゲートボール場", "所在地": "森2-6-4", "管理者コード": 3, "階数": -99, "建築年": 9999 }, "geometry": { "type": "Point", "coordinates": [ 136.813609, 35.208885 ] } },
{ "type": "Feature", "properties": { "行政区域コード": "23237", "公共施設大分類": "3", "公共施設小分類": "99999", "文化施設分類": "03104", "名称": "甚目寺小学校", "所在地": "甚目寺寺西40", "管理者コード": 3, "階数": -99, "建築年": 9999 }, "geometry": { "type": "Point", "coordinates": [ 136.821551, 35.194803 ] } },
{ "type": "Feature", "properties": { "行政区域コード": "23237", "公共施設大分類": "3", "公共施設小分類": "99999", "文化施設分類": "03109", "名称": "甚目寺小学校", "所在地": "甚目寺寺西40", "管理者コード": 3, "階数": -99, "建築年": 9999 }, "geometry": { "type": "Point", "coordinates": [ 136.820898, 35.194851 ] } },
{ "type": "Feature", "properties": { "行政区域コード": "23237", "公共施設大分類": "3", "公共施設小分類": "99999", "文化施設分類": "03115", "名称": "甚目寺中学校", "所在地": "甚目寺二伴田76", "管理者コード": 3, "階数": -99, "建築年": 9999 }, "geometry": { "type": "Point", "coordinates": [ 136.819595, 35.199626 ] } },
{ "type": "Feature", "properties": { "行政区域コード": "23237", "公共施設大分類": "3", "公共施設小分類": "99999", "文化施設分類": "03109", "名称": "甚目寺中学校", "所在地": "甚目寺二伴田76", "管理者コード": 3, "階数": -99, "建築年": 9999 }, "geometry": { "type": "Point", "coordinates": [ 136.821283, 35.199687 ] } },
{ "type": "Feature", "properties": { "行政区域コード": "23237", "公共施設大分類": "3", "公共施設小分類": "99999", "文化施設分類": "03104", "名称": "甚目寺中学校", "所在地": "甚目寺二伴田76", "管理者コード": 3, "階数": -99, "建築年": 9999 }, "geometry": { "type": "Point", "coordinates": [ 136.820325, 35.199284 ] } },
{ "type": "Feature", "properties": { "行政区域コード": "23237", "公共施設大分類": "3", "公共施設小分類": "99999", "文化施設分類": "03115", "名称": "甚目寺テニスコート", "所在地": "甚目寺二伴田76-1", "管理者コード": 3, "階数": -99, "建築年": 9999 }, "geometry": { "type": "Point", "coordinates": [ 136.819607, 35.198489 ] } },
{ "type": "Feature", "properties": { "行政区域コード": "23237", "公共施設大分類": "3", "公共施設小分類": "99999", "文化施設分類": "03138", "名称": "西今宿ゲートボール場", "所在地": "西今宿馬洗144-1", "管理者コード": 3, "階数": -99, "建築年": 9999 }, "geometry": { "type": "Point", "coordinates": [ 136.827276, 35.200206 ] } },
{ "type": "Feature", "properties": { "行政区域コード": "23237", "公共施設大分類": "3", "公共施設小分類": "99999", "文化施設分類": "03109", "名称": "甚目寺総合体育館", "所在地": "西今宿馬洗56", "管理者コード": 3, "階数": -99, "建築年": 9999 }, "geometry": { "type": "Point", "coordinates": [ 136.827025, 35.199461 ] } },
{ "type": "Feature", "properties": { "行政区域コード": "23237", "公共施設大分類": "3", "公共施設小分類": "99999", "文化施設分類": "03112", "名称": "甚目寺総合体育館", "所在地": "西今宿馬洗56", "管理者コード": 3, "階数": -99, "建築年": 9999 }, "geometry": { "type": "Point", "coordinates": [ 136.827037, 35.199355 ] } },
{ "type": "Feature", "properties": { "行政区域コード": "23237", "公共施設大分類": "3", "公共施設小分類": "99999", "文化施設分類": "03121", "名称": "甚目寺総合体育館", "所在地": "西今宿馬洗56", "管理者コード": 3, "階数": -99, "建築年": 9999 }, "geometry": { "type": "Point", "coordinates": [ 136.826752, 35.198665 ] } },
{ "type": "Feature", "properties": { "行政区域コード": "23237", "公共施設大分類": "3", "公共施設小分類": "99999", "文化施設分類": "03129", "名称": "甚目寺総合体育館", "所在地": "西今宿馬洗56", "管理者コード": 3, "階数": -99, "建築年": 9999 }, "geometry": { "type": "Point", "coordinates": [ 136.827037, 35.199257 ] } },
{ "type": "Feature", "properties": { "行政区域コード": "23237", "公共施設大分類": "3", "公共施設小分類": "99999", "文化施設分類": "03116", "名称": "甚目寺総合体育館", "所在地": "西今宿馬洗56", "管理者コード": 3, "階数": -99, "建築年": 9999 }, "geometry": { "type": "Point", "coordinates": [ 136.827061, 35.199102 ] } },
{ "type": "Feature", "properties": { "行政区域コード": "23237", "公共施設大分類": "3", "公共施設小分類": "99999", "文化施設分類": "03104", "名称": "甚目寺東小学校", "所在地": "西今宿六反割60-1", "管理者コード": 3, "階数": -99, "建築年": 9999 }, "geometry": { "type": "Point", "coordinates": [ 136.824601, 35.202386 ] } },
{ "type": "Feature", "properties": { "行政区域コード": "23237", "公共施設大分類": "3", "公共施設小分類": "99999", "文化施設分類": "03109", "名称": "甚目寺東小学校", "所在地": "西今宿六反割60-1", "管理者コード": 3, "階数": -99, "建築年": 9999 }, "geometry": { "type": "Point", "coordinates": [ 136.825065, 35.202988 ] } },
{ "type": "Feature", "properties": { "行政区域コード": "23237", "公共施設大分類": "3", "公共施設小分類": "99999", "文化施設分類": "03104", "名称": "甚目寺南小学校", "所在地": "中萱津西ノ川40", "管理者コード": 3, "階数": -99, "建築年": 9999 }, "geometry": { "type": "Point", "coordinates": [ 136.831016, 35.18802 ] } },
{ "type": "Feature", "properties": { "行政区域コード": "23237", "公共施設大分類": "3", "公共施設小分類": "99999", "文化施設分類": "03109", "名称": "甚目寺南小学校", "所在地": "中萱津西ノ川40", "管理者コード": 3, "階数": -99, "建築年": 9999 }, "geometry": { "type": "Point", "coordinates": [ 136.830232, 35.187972 ] } },
{ "type": "Feature", "properties": { "行政区域コード": "23237", "公共施設大分類": "3", "公共施設小分類": "99999", "文化施設分類": "03102", "名称": "美和グラウンド", "所在地": "東溝口3-101", "管理者コード": 3, "階数": -99, "建築年": 9999 }, "geometry": { "type": "Point", "coordinates": [ 136.784989, 35.205447 ] } },
{ "type": "Feature", "properties": { "行政区域コード": "23237", "公共施設大分類": "3", "公共施設小分類": "99999", "文化施設分類": "03106", "名称": "美和プール（休止中）", "所在地": "東溝口3-101", "管理者コード": 3, "階数": -99, "建築年": 9999 }, "geometry": { "type": "Point", "coordinates": [ 136.783634, 35.205398 ] } },
{ "type": "Feature", "properties": { "行政区域コード": "23237", "公共施設大分類": "3", "公共施設小分類": "99999", "文化施設分類": "03104", "名称": "正則小学校", "所在地": "二ツ寺三本松46", "管理者コード": 3, "階数": -99, "建築年": 9999 }, "geometry": { "type": "Point", "coordinates": [ 136.799008, 35.206074 ] } },
{ "type": "Feature", "properties": { "行政区域コード": "23237", "公共施設大分類": "3", "公共施設小分類": "99999", "文化施設分類": "03109", "名称": "正則小学校", "所在地": "二ツ寺三本松46", "管理者コード": 3, "階数": -99, "建築年": 9999 }, "geometry": { "type": "Point", "coordinates": [ 136.798592, 35.206744 ] } },
{ "type": "Feature", "properties": { "行政区域コード": "23237", "公共施設大分類": "3", "公共施設小分類": "99999", "文化施設分類": "03102", "名称": "蜂須賀グラウンド", "所在地": "蜂須賀八幡前18", "管理者コード": 3, "階数": -99, "建築年": 9999 }, "geometry": { "type": "Point", "coordinates": [ 136.771191, 35.206656 ] } },
{ "type": "Feature", "properties": { "行政区域コード": "23237", "公共施設大分類": "3", "公共施設小分類": "99999", "文化施設分類": "03103", "名称": "蜂須賀グラウンド", "所在地": "蜂須賀八幡前18", "管理者コード": 3, "階数": -99, "建築年": 9999 }, "geometry": { "type": "Point", "coordinates": [ 136.771096, 35.206103 ] } },
{ "type": "Feature", "properties": { "行政区域コード": "23237", "公共施設大分類": "3", "公共施設小分類": "99999", "文化施設分類": "03115", "名称": "甚目寺南中学校", "所在地": "本郷八尻6", "管理者コード": 3, "階数": -99, "建築年": 9999 }, "geometry": { "type": "Point", "coordinates": [ 136.827715, 35.188815 ] } },
{ "type": "Feature", "properties": { "行政区域コード": "23237", "公共施設大分類": "3", "公共施設小分類": "99999", "文化施設分類": "03109", "名称": "甚目寺南中学校", "所在地": "本郷八尻6", "管理者コード": 3, "階数": -99, "建築年": 9999 }, "geometry": { "type": "Point", "coordinates": [ 136.82819, 35.189825 ] } },
{ "type": "Feature", "properties": { "行政区域コード": "23237", "公共施設大分類": "3", "公共施設小分類": "99999", "文化施設分類": "03104", "名称": "甚目寺南中学校", "所在地": "本郷八尻6", "管理者コード": 3, "階数": -99, "建築年": 9999 }, "geometry": { "type": "Point", "coordinates": [ 136.828559, 35.189135 ] } },
{ "type": "Feature", "properties": { "行政区域コード": "23237", "公共施設大分類": "3", "公共施設小分類": "99999", "文化施設分類": "03104", "名称": "美和東小学校", "所在地": "木折寺田1-3", "管理者コード": 3, "階数": -99, "建築年": 9999 }, "geometry": { "type": "Point", "coordinates": [ 136.796685, 35.190706 ] } },
{ "type": "Feature", "properties": { "行政区域コード": "23237", "公共施設大分類": "3", "公共施設小分類": "99999", "文化施設分類": "03109", "名称": "美和東小学校", "所在地": "木折寺田1-3", "管理者コード": 3, "階数": -99, "建築年": 9999 }, "geometry": { "type": "Point", "coordinates": [ 136.796424, 35.191279 ] } },
{ "type": "Feature", "properties": { "行政区域コード": "23237", "公共施設大分類": "3", "公共施設小分類": "99999", "文化施設分類": "03104", "名称": "美和小学校", "所在地": "木田小島55", "管理者コード": 3, "階数": -99, "建築年": 9999 }, "geometry": { "type": "Point", "coordinates": [ 136.782131, 35.19745 ] } },
{ "type": "Feature", "properties": { "行政区域コード": "23237", "公共施設大分類": "3", "公共施設小分類": "99999", "文化施設分類": "03109", "名称": "美和小学校", "所在地": "木田小島55", "管理者コード": 3, "階数": -99, "建築年": 9999 }, "geometry": { "type": "Point", "coordinates": [ 136.782048, 35.198402 ] } },
{ "type": "Feature", "properties": { "行政区域コード": "23237", "公共施設大分類": "3", "公共施設小分類": "99999", "文化施設分類": "03115", "名称": "美和テニスコート", "所在地": "木田沼西切55-1", "管理者コード": 3, "階数": -99, "建築年": 9999 }, "geometry": { "type": "Point", "coordinates": [ 136.782167, 35.198734 ] } },
{ "type": "Feature", "properties": { "行政区域コード": "23237", "公共施設大分類": "3", "公共施設小分類": "99999", "文化施設分類": "03104", "名称": "美和中学校", "所在地": "木田丁子ノ口1", "管理者コード": 3, "階数": -99, "建築年": 9999 }, "geometry": { "type": "Point", "coordinates": [ 136.788214, 35.197421 ] } },
{ "type": "Feature", "properties": { "行政区域コード": "23237", "公共施設大分類": "3", "公共施設小分類": "99999", "文化施設分類": "03103", "名称": "美和中学校", "所在地": "木田丁子ノ口1", "管理者コード": 3, "階数": -99, "建築年": 9999 }, "geometry": { "type": "Point", "coordinates": [ 136.788238, 35.197586 ] } },
{ "type": "Feature", "properties": { "行政区域コード": "23237", "公共施設大分類": "3", "公共施設小分類": "99999", "文化施設分類": "03110", "名称": "美和中学校", "所在地": "木田丁子ノ口1", "管理者コード": 3, "階数": -99, "建築年": 9999 }, "geometry": { "type": "Point", "coordinates": [ 136.786954, 35.197401 ] } },
{ "type": "Feature", "properties": { "行政区域コード": "23237", "公共施設大分類": "3", "公共施設小分類": "99999", "文化施設分類": "03111", "名称": "美和中学校", "所在地": "木田丁子ノ口1", "管理者コード": 3, "階数": -99, "建築年": 9999 }, "geometry": { "type": "Point", "coordinates": [ 136.78696, 35.197333 ] } },
{ "type": "Feature", "properties": { "行政区域コード": "23237", "公共施設大分類": "3", "公共施設小分類": "99999", "文化施設分類": "03120", "名称": "美和中学校", "所在地": "木田丁子ノ口1", "管理者コード": 3, "階数": -99, "建築年": 9999 }, "geometry": { "type": "Point", "coordinates": [ 136.786972, 35.197256 ] } },
{ "type": "Feature", "properties": { "行政区域コード": "23237", "公共施設大分類": "3", "公共施設小分類": "99999", "文化施設分類": "03119", "名称": "美和中学校", "所在地": "木田丁子ノ口1", "管理者コード": 3, "階数": -99, "建築年": 9999 }, "geometry": { "type": "Point", "coordinates": [ 136.789019, 35.198052 ] } },
{ "type": "Feature", "properties": { "行政区域コード": "23237", "公共施設大分類": "3", "公共施設小分類": "99999", "文化施設分類": "03109", "名称": "美和中学校", "所在地": "木田丁子ノ口1", "管理者コード": 3, "階数": -99, "建築年": 9999 }, "geometry": { "type": "Point", "coordinates": [ 136.786972, 35.197173 ] } },
{ "type": "Feature", "properties": { "行政区域コード": "23237", "公共施設大分類": "3", "公共施設小分類": "99999", "文化施設分類": "03138", "名称": "美和ゲートボール場", "所在地": "木田戌亥50-1", "管理者コード": 3, "階数": -99, "建築年": 9999 }, "geometry": { "type": "Point", "coordinates": [ 136.782924, 35.201075 ] } },
{ "type": "Feature", "properties": { "行政区域コード": "23203", "公共施設大分類": "3", "公共施設小分類": "99999", "文化施設分類": "03147", "名称": "一宮地域文化広場", "所在地": "時之島字玉振1-1", "管理者コード": 4, "階数": -99, "建築年": 9999 }, "geometry": { "type": "Point", "coordinates": [ 136.845787, 35.324865 ] } },
{ "type": "Feature", "properties": { "行政区域コード": "23203", "公共施設大分類": "3", "公共施設小分類": "99999", "文化施設分類": "03106", "名称": "一宮地域文化広場", "所在地": "時之島字玉振1-1", "管理者コード": 4, "階数": -99, "建築年": 9999 }, "geometry": { "type": "Point", "coordinates": [ 136.845514, 35.325029 ] } },
{ "type": "Feature", "properties": { "行政区域コード": "23203", "公共施設大分類": "3", "公共施設小分類": "99999", "文化施設分類": "03115", "名称": "尾西文化広場", "所在地": "祐久字外浦36", "管理者コード": 4, "階数": -99, "建築年": 9999 }, "geometry": { "type": "Point", "coordinates": [ 136.725021, 35.288148 ] } },
{ "type": "Feature", "properties": { "行政区域コード": "23215", "公共施設大分類": "3", "公共施設小分類": "99999", "文化施設分類": "03109", "名称": "犬山市体育館", "所在地": "大字犬山字北古券12", "管理者コード": 3, "階数": -99, "建築年": 9999 }, "geometry": { "type": "Point", "coordinates": [ 136.938112, 35.386445 ] } },
{ "type": "Feature", "properties": { "行政区域コード": "23215", "公共施設大分類": "3", "公共施設小分類": "99999", "文化施設分類": "03120", "名称": "犬山市体育館", "所在地": "大字犬山字北古券12", "管理者コード": 3, "階数": -99, "建築年": 9999 }, "geometry": { "type": "Point", "coordinates": [ 136.937946, 35.386406 ] } },
{ "type": "Feature", "properties": { "行政区域コード": "23215", "公共施設大分類": "3", "公共施設小分類": "99999", "文化施設分類": "03110", "名称": "犬山市体育館", "所在地": "大字犬山字北古券12", "管理者コード": 3, "階数": -99, "建築年": 9999 }, "geometry": { "type": "Point", "coordinates": [ 136.938112, 35.386319 ] } },